{"USA":[{"name":"New York City","lat":40.714,"lng":-74.006,"pop":8804190},{"name":"Los Angeles","lat":34.052,"lng":-118.244,"pop":3820914},{"name":"Brooklyn","lat":40.65,"lng":-73.95,"pop":2736074},{"name":"Chicago","lat":41.85,"lng":-87.65,"pop":2664452},{"name":"Queens","lat":40.681,"lng":-73.837,"pop":2316841},{"name":"Houston","lat":29.763,"lng":-95.363,"pop":2314157},{"name":"Phoenix","lat":33.448,"lng":-112.074,"pop":1650070},{"name":"Philadelphia","lat":39.952,"lng":-75.164,"pop":1573916},{"name":"San Antonio","lat":29.424,"lng":-98.494,"pop":1526656},{"name":"Manhattan","lat":40.783,"lng":-73.966,"pop":1487536},{"name":"San Diego","lat":32.716,"lng":-117.165,"pop":1404452},{"name":"The Bronx","lat":40.85,"lng":-73.866,"pop":1385108},{"name":"Dallas","lat":32.783,"lng":-96.807,"pop":1326087},{"name":"Jacksonville","lat":30.332,"lng":-81.656,"pop":1009833},{"name":"Fort Worth","lat":32.725,"lng":-97.321,"pop":1008106},{"name":"San Jose","lat":37.339,"lng":-121.895,"pop":997368},{"name":"Austin","lat":30.267,"lng":-97.743,"pop":974447},{"name":"Columbus","lat":39.961,"lng":-82.999,"pop":913175},{"name":"Charlotte","lat":35.227,"lng":-80.843,"pop":911311},{"name":"Indianapolis","lat":39.768,"lng":-86.158,"pop":887642},{"name":"San Francisco","lat":37.775,"lng":-122.419,"pop":827526},{"name":"Seattle","lat":47.606,"lng":-122.332,"pop":780995},{"name":"Denver","lat":39.739,"lng":-104.985,"pop":729019},{"name":"Washington","lat":38.895,"lng":-77.036,"pop":689545},{"name":"Nashville","lat":36.166,"lng":-86.784,"pop":689447},{"name":"Oklahoma City","lat":35.468,"lng":-97.516,"pop":681054},{"name":"El Paso","lat":31.759,"lng":-106.487,"pop":678815},{"name":"Boston","lat":42.358,"lng":-71.06,"pop":653833},{"name":"Portland","lat":45.523,"lng":-122.676,"pop":652503},{"name":"Detroit","lat":42.331,"lng":-83.046,"pop":645705},{"name":"Las Vegas","lat":36.175,"lng":-115.137,"pop":641903},{"name":"New South Memphis","lat":35.087,"lng":-90.057,"pop":641608},{"name":"Memphis","lat":35.15,"lng":-90.049,"pop":633104},{"name":"Louisville","lat":38.254,"lng":-85.759,"pop":624444},{"name":"Baltimore","lat":39.29,"lng":-76.612,"pop":585708},{"name":"South Boston","lat":42.333,"lng":-71.049,"pop":571281},{"name":"Albuquerque","lat":35.084,"lng":-106.651,"pop":564559},{"name":"Milwaukee","lat":43.039,"lng":-87.906,"pop":563531},{"name":"Tucson","lat":32.222,"lng":-110.926,"pop":542629},{"name":"Fresno","lat":36.748,"lng":-119.772,"pop":542107},{"name":"Sacramento","lat":38.582,"lng":-121.494,"pop":524943},{"name":"Atlanta","lat":33.749,"lng":-84.388,"pop":510823},{"name":"Miami","lat":25.774,"lng":-80.194,"pop":487014},{"name":"Omaha","lat":41.256,"lng":-95.94,"pop":486051},{"name":"Raleigh","lat":35.772,"lng":-78.639,"pop":482295},{"name":"Kansas City","lat":39.1,"lng":-94.579,"pop":475378},{"name":"Long Beach","lat":33.767,"lng":-118.189,"pop":474140},{"name":"Mesa","lat":33.422,"lng":-111.823,"pop":471825},{"name":"Staten Island","lat":40.562,"lng":-74.14,"pop":468730},{"name":"Colorado Springs","lat":38.834,"lng":-104.821,"pop":456568},{"name":"Virginia Beach","lat":36.853,"lng":-75.978,"pop":454808},{"name":"Oakland","lat":37.804,"lng":-122.271,"pop":419267},{"name":"Tampa","lat":27.948,"lng":-82.458,"pop":414547},{"name":"Tulsa","lat":36.154,"lng":-95.993,"pop":413066},{"name":"Minneapolis","lat":44.98,"lng":-93.264,"pop":410939},{"name":"Wichita","lat":37.692,"lng":-97.338,"pop":396119},{"name":"Arlington","lat":32.736,"lng":-97.108,"pop":388125},{"name":"Bakersfield","lat":35.373,"lng":-119.019,"pop":373640},{"name":"Cleveland","lat":41.499,"lng":-81.695,"pop":365379},{"name":"New Orleans","lat":29.955,"lng":-90.075,"pop":362701},{"name":"Aurora","lat":39.729,"lng":-104.832,"pop":359407},{"name":"Honolulu","lat":21.307,"lng":-157.858,"pop":350964},{"name":"Anaheim","lat":33.835,"lng":-117.915,"pop":350742},{"name":"West Raleigh","lat":35.787,"lng":-78.664,"pop":338759},{"name":"Orlando","lat":28.538,"lng":-81.379,"pop":334854},{"name":"Lexington","lat":37.989,"lng":-84.478,"pop":320347},{"name":"Riverside","lat":33.953,"lng":-117.396,"pop":317261},{"name":"Corpus Christi","lat":27.801,"lng":-97.396,"pop":316239},{"name":"Lexington-Fayette","lat":38.05,"lng":-84.459,"pop":314488},{"name":"Cincinnati","lat":39.127,"lng":-84.514,"pop":311097},{"name":"Santa Ana","lat":33.746,"lng":-117.868,"pop":310227},{"name":"Stockton","lat":37.958,"lng":-121.291,"pop":305658},{"name":"Pittsburgh","lat":40.441,"lng":-79.996,"pop":304391},{"name":"Saint Paul","lat":44.944,"lng":-93.093,"pop":303176},{"name":"Lincoln","lat":40.8,"lng":-96.667,"pop":294757},{"name":"Anchorage","lat":61.218,"lng":-149.9,"pop":289600},{"name":"Meads","lat":38.413,"lng":-82.709,"pop":288649},{"name":"Henderson","lat":36.04,"lng":-114.982,"pop":285667},{"name":"Greensboro","lat":36.073,"lng":-79.792,"pop":285342},{"name":"Plano","lat":33.02,"lng":-96.699,"pop":283558},{"name":"Newark","lat":40.736,"lng":-74.172,"pop":281944},{"name":"Madison","lat":43.073,"lng":-89.401,"pop":280305},{"name":"St. Louis","lat":38.627,"lng":-90.198,"pop":279695},{"name":"Chula Vista","lat":32.64,"lng":-117.084,"pop":265757},{"name":"Toledo","lat":41.664,"lng":-83.555,"pop":265638},{"name":"Jersey City","lat":40.728,"lng":-74.078,"pop":264290},{"name":"Reno","lat":39.53,"lng":-119.814,"pop":264165},{"name":"Chandler","lat":33.306,"lng":-111.841,"pop":260828},{"name":"Fort Wayne","lat":41.131,"lng":-85.129,"pop":260326},{"name":"Buffalo","lat":42.886,"lng":-78.878,"pop":258071},{"name":"Durham","lat":35.994,"lng":-78.899,"pop":257636},{"name":"St. Petersburg","lat":27.771,"lng":-82.679,"pop":257083},{"name":"Irvine","lat":33.669,"lng":-117.823,"pop":256927},{"name":"Laredo","lat":27.506,"lng":-99.508,"pop":256153},{"name":"Lubbock","lat":33.578,"lng":-101.855,"pop":249042},{"name":"Gilbert","lat":33.353,"lng":-111.789,"pop":247542},{"name":"Tri-Cities","lat":46.245,"lng":-119.196,"pop":244036},{"name":"Winston-Salem","lat":36.1,"lng":-80.244,"pop":241218},{"name":"Glendale","lat":33.539,"lng":-112.186,"pop":240126},{"name":"Norfolk","lat":36.847,"lng":-76.285,"pop":238005},{"name":"Hialeah","lat":25.858,"lng":-80.278,"pop":237069},{"name":"Garland","lat":32.913,"lng":-96.639,"pop":236897},{"name":"Scottsdale","lat":33.509,"lng":-111.899,"pop":236839},{"name":"Irving","lat":32.814,"lng":-96.949,"pop":236607},{"name":"Boise","lat":43.614,"lng":-116.203,"pop":235684},{"name":"Chesapeake","lat":36.819,"lng":-76.275,"pop":235429},{"name":"North Las Vegas","lat":36.199,"lng":-115.118,"pop":234807},{"name":"Fremont","lat":37.548,"lng":-121.989,"pop":232206},{"name":"Spokane","lat":47.66,"lng":-117.429,"pop":229447},{"name":"Baton Rouge","lat":30.443,"lng":-91.187,"pop":227470},{"name":"Upper West Side","lat":40.787,"lng":-73.975,"pop":226989},{"name":"Richmond","lat":37.554,"lng":-77.46,"pop":226610},{"name":"Paradise","lat":36.097,"lng":-115.147,"pop":223167},{"name":"Tacoma","lat":47.253,"lng":-122.444,"pop":222906},{"name":"Jamaica","lat":40.691,"lng":-73.806,"pop":216866},{"name":"San Bernardino","lat":34.108,"lng":-117.29,"pop":216108},{"name":"Salt Lake City","lat":40.761,"lng":-111.891,"pop":215548},{"name":"Huntsville","lat":34.73,"lng":-86.586,"pop":215006},{"name":"Des Moines","lat":41.601,"lng":-93.609,"pop":214133},{"name":"Fontana","lat":34.092,"lng":-117.435,"pop":212704},{"name":"Modesto","lat":37.639,"lng":-120.997,"pop":211266},{"name":"Rochester","lat":43.155,"lng":-77.616,"pop":209802},{"name":"Maryvale","lat":33.502,"lng":-112.178,"pop":208189},{"name":"Oxnard","lat":34.197,"lng":-119.177,"pop":207254},{"name":"Worcester","lat":42.263,"lng":-71.802,"pop":206518},{"name":"Moreno Valley","lat":33.938,"lng":-117.231,"pop":204198},{"name":"Little Rock","lat":34.746,"lng":-92.29,"pop":202591},{"name":"Fayetteville","lat":35.053,"lng":-78.878,"pop":201963},{"name":"Huntington Beach","lat":33.66,"lng":-117.999,"pop":201899},{"name":"Tallahassee","lat":30.438,"lng":-84.281,"pop":201731},{"name":"Yonkers","lat":40.93,"lng":-73.898,"pop":201116},{"name":"Cypress","lat":29.969,"lng":-95.697,"pop":200839},{"name":"Amarillo","lat":35.222,"lng":-101.831,"pop":198645},{"name":"Akron","lat":41.081,"lng":-81.519,"pop":197542},{"name":"Vancouver","lat":45.639,"lng":-122.661,"pop":196442},{"name":"Birmingham","lat":33.521,"lng":-86.802,"pop":196357},{"name":"Montgomery","lat":32.367,"lng":-86.3,"pop":195287},{"name":"Grand Rapids","lat":42.963,"lng":-85.668,"pop":195097},{"name":"Peoria","lat":33.581,"lng":-112.237,"pop":190985},{"name":"Providence","lat":41.824,"lng":-71.413,"pop":190934},{"name":"Knoxville","lat":35.961,"lng":-83.921,"pop":190740},{"name":"Sunrise Manor","lat":36.211,"lng":-115.073,"pop":189372},{"name":"Grand Prairie","lat":32.746,"lng":-96.998,"pop":187809},{"name":"Shreveport","lat":32.525,"lng":-93.75,"pop":187593},{"name":"Brownsville","lat":25.902,"lng":-97.497,"pop":186738},{"name":"Overland Park","lat":38.982,"lng":-94.671,"pop":186515},{"name":"Newport News","lat":36.98,"lng":-76.43,"pop":186247},{"name":"Mobile","lat":30.694,"lng":-88.043,"pop":183289},{"name":"Fort Lauderdale","lat":26.122,"lng":-80.143,"pop":183146},{"name":"Santa Clarita","lat":34.392,"lng":-118.543,"pop":182371},{"name":"Chattanooga","lat":35.046,"lng":-85.31,"pop":181099},{"name":"East Flatbush","lat":40.654,"lng":-73.93,"pop":178464},{"name":"Spring Valley","lat":36.108,"lng":-115.245,"pop":178395},{"name":"Santa Rosa","lat":38.44,"lng":-122.714,"pop":178127},{"name":"Eugene","lat":44.052,"lng":-123.087,"pop":176654},{"name":"Tempe","lat":33.415,"lng":-111.909,"pop":175826},{"name":"Oceanside","lat":33.196,"lng":-117.379,"pop":175691},{"name":"Salem","lat":44.943,"lng":-123.035,"pop":175535},{"name":"Garden Grove","lat":33.774,"lng":-117.941,"pop":175393},{"name":"Rancho Cucamonga","lat":34.106,"lng":-117.593,"pop":175236},{"name":"Cape Coral","lat":26.563,"lng":-81.95,"pop":175229},{"name":"East New York","lat":40.667,"lng":-73.882,"pop":173198},{"name":"Sioux Falls","lat":43.544,"lng":-96.728,"pop":171544},{"name":"Ontario","lat":34.063,"lng":-117.651,"pop":171214},{"name":"Fort Collins","lat":40.585,"lng":-105.084,"pop":170924},{"name":"Springfield","lat":37.215,"lng":-93.298,"pop":170188},{"name":"Hollywood","lat":34.098,"lng":-118.327,"pop":167664},{"name":"Elk Grove","lat":38.409,"lng":-121.372,"pop":166913},{"name":"Clarksville","lat":36.53,"lng":-87.359,"pop":166722},{"name":"Pembroke Pines","lat":26.003,"lng":-80.224,"pop":166611},{"name":"Deer Valley","lat":33.684,"lng":-112.135,"pop":165656},{"name":"Murfreesboro","lat":35.846,"lng":-86.39,"pop":165430},{"name":"Port Saint Lucie","lat":27.294,"lng":-80.35,"pop":164603},{"name":"Corona","lat":33.875,"lng":-117.566,"pop":164226},{"name":"McKinney","lat":33.198,"lng":-96.615,"pop":162898},{"name":"Lancaster","lat":34.698,"lng":-118.137,"pop":161103},{"name":"Cary","lat":35.792,"lng":-78.781,"pop":159769},{"name":"Alexandria","lat":38.805,"lng":-77.047,"pop":159467},{"name":"Tempe Junction","lat":33.414,"lng":-111.943,"pop":158368},{"name":"Palmdale","lat":34.579,"lng":-118.116,"pop":158351},{"name":"Hayward","lat":37.669,"lng":-122.081,"pop":158289},{"name":"Salinas","lat":36.678,"lng":-121.656,"pop":157380},{"name":"Sunnyvale","lat":37.369,"lng":-122.036,"pop":155805},{"name":"Frisco","lat":33.151,"lng":-96.824,"pop":154407},{"name":"East Chattanooga","lat":35.065,"lng":-85.249,"pop":154024},{"name":"Pasadena","lat":29.691,"lng":-95.209,"pop":153784},{"name":"Jackson","lat":32.299,"lng":-90.185,"pop":153701},{"name":"Pomona","lat":34.055,"lng":-117.752,"pop":153266},{"name":"Washington Heights","lat":40.85,"lng":-73.935,"pop":152613},{"name":"Lakewood","lat":39.705,"lng":-105.081,"pop":152597},{"name":"Escondido","lat":33.119,"lng":-117.086,"pop":151038},{"name":"Astoria","lat":40.772,"lng":-73.93,"pop":150165},{"name":"Borough Park","lat":40.634,"lng":-73.997,"pop":149248},{"name":"Valencia","lat":34.444,"lng":-118.61,"pop":148456},{"name":"Rockford","lat":42.271,"lng":-89.094,"pop":148278},{"name":"East Hampton","lat":37.037,"lng":-76.332,"pop":147993},{"name":"Joliet","lat":41.525,"lng":-88.083,"pop":147861},{"name":"Savannah","lat":32.084,"lng":-81.1,"pop":147780},{"name":"Paterson","lat":40.917,"lng":-74.172,"pop":147754},{"name":"Bridgeport","lat":41.179,"lng":-73.189,"pop":147629},{"name":"Naperville","lat":41.786,"lng":-88.147,"pop":147100},{"name":"Gainesville","lat":29.652,"lng":-82.325,"pop":145214},{"name":"Mesquite","lat":32.767,"lng":-96.599,"pop":144788},{"name":"Syracuse","lat":43.048,"lng":-76.147,"pop":144142},{"name":"Torrance","lat":33.836,"lng":-118.341,"pop":143592},{"name":"Surprise","lat":33.631,"lng":-112.333,"pop":143148},{"name":"Metairie Terrace","lat":29.979,"lng":-90.164,"pop":142489},{"name":"Columbia","lat":34.001,"lng":-81.035,"pop":142416},{"name":"Orange","lat":33.788,"lng":-117.853,"pop":140992},{"name":"Fullerton","lat":33.87,"lng":-117.925,"pop":140847},{"name":"Killeen","lat":31.117,"lng":-97.728,"pop":140806},{"name":"McAllen","lat":26.203,"lng":-98.23,"pop":140269},{"name":"Bellevue","lat":47.61,"lng":-122.201,"pop":139820},{"name":"Metairie","lat":29.984,"lng":-90.153,"pop":138481},{"name":"Hampton","lat":37.03,"lng":-76.345,"pop":137148},{"name":"Miramar","lat":25.987,"lng":-80.232,"pop":137132},{"name":"Van Nuys","lat":34.187,"lng":-118.449,"pop":136443},{"name":"West Valley City","lat":40.692,"lng":-112.001,"pop":136208},{"name":"Dayton","lat":39.759,"lng":-84.192,"pop":135512},{"name":"Olathe","lat":38.881,"lng":-94.819,"pop":134305},{"name":"Warren","lat":42.49,"lng":-83.013,"pop":134056},{"name":"Thornton","lat":39.868,"lng":-104.972,"pop":133451},{"name":"Carrollton","lat":32.954,"lng":-96.89,"pop":133168},{"name":"Charleston","lat":32.776,"lng":-79.933,"pop":132609},{"name":"Midland","lat":31.997,"lng":-102.078,"pop":132524},{"name":"Waco","lat":31.549,"lng":-97.147,"pop":132356},{"name":"Sterling Heights","lat":42.58,"lng":-83.03,"pop":132052},{"name":"Denton","lat":33.215,"lng":-97.133,"pop":131044},{"name":"Cedar Rapids","lat":42.008,"lng":-91.644,"pop":130405},{"name":"New Haven","lat":41.308,"lng":-72.928,"pop":130322},{"name":"Roseville","lat":38.752,"lng":-121.288,"pop":130269},{"name":"Visalia","lat":36.33,"lng":-119.292,"pop":130104},{"name":"Coral Springs","lat":26.271,"lng":-80.271,"pop":129485},{"name":"Thousand Oaks","lat":34.171,"lng":-118.838,"pop":129339},{"name":"Elizabeth","lat":40.664,"lng":-74.211,"pop":129007},{"name":"Stamford","lat":41.053,"lng":-73.539,"pop":128874},{"name":"Concord","lat":37.978,"lng":-122.031,"pop":128667},{"name":"Norman","lat":35.223,"lng":-97.439,"pop":128026},{"name":"Alhambra","lat":33.498,"lng":-112.134,"pop":127764},{"name":"Athens","lat":33.961,"lng":-83.378,"pop":127315},{"name":"Kent","lat":47.381,"lng":-122.235,"pop":126952},{"name":"Simi Valley","lat":34.269,"lng":-118.781,"pop":126788},{"name":"East Los Angeles","lat":34.024,"lng":-118.172,"pop":126496},{"name":"Santa Clara","lat":37.354,"lng":-121.955,"pop":126215},{"name":"Sunset Park","lat":40.645,"lng":-74.012,"pop":126000},{"name":"Topeka","lat":39.048,"lng":-95.678,"pop":125963},{"name":"Abilene","lat":32.449,"lng":-99.733,"pop":125182},{"name":"Koreatown","lat":34.058,"lng":-118.301,"pop":124281},{"name":"Sheepshead Bay","lat":40.591,"lng":-73.945,"pop":122534},{"name":"Amherst","lat":42.978,"lng":-78.8,"pop":122366},{"name":"Victorville","lat":34.536,"lng":-117.291,"pop":122225},{"name":"Vallejo","lat":38.104,"lng":-122.257,"pop":121692},{"name":"Lafayette","lat":30.224,"lng":-92.02,"pop":121374},{"name":"Chico","lat":39.728,"lng":-121.837,"pop":121345},{"name":"North Stamford","lat":41.138,"lng":-73.543,"pop":121230},{"name":"Hartford","lat":41.764,"lng":-72.685,"pop":121054},{"name":"Berkeley","lat":37.872,"lng":-122.273,"pop":120972},{"name":"West Palm Beach","lat":26.715,"lng":-80.053,"pop":120932},{"name":"Allentown","lat":40.608,"lng":-75.49,"pop":120207},{"name":"Evansville","lat":37.975,"lng":-87.556,"pop":119943},{"name":"Palm Bay","lat":28.034,"lng":-80.589,"pop":119760},{"name":"Fargo","lat":46.877,"lng":-96.79,"pop":118523},{"name":"Clearwater","lat":27.966,"lng":-82.8,"pop":117292},{"name":"Independence","lat":39.091,"lng":-94.416,"pop":117255},{"name":"Billings","lat":45.783,"lng":-108.501,"pop":117116},{"name":"Ann Arbor","lat":42.278,"lng":-83.741,"pop":117070},{"name":"El Monte","lat":34.069,"lng":-118.028,"pop":116732},{"name":"Harlem","lat":40.808,"lng":-73.945,"pop":116345},{"name":"Westminster","lat":39.837,"lng":-105.037,"pop":116317},{"name":"Round Rock","lat":30.508,"lng":-97.679,"pop":115997},{"name":"Wilmington","lat":34.236,"lng":-77.946,"pop":115933},{"name":"East Harlem","lat":40.795,"lng":-73.942,"pop":115921},{"name":"Arvada","lat":39.803,"lng":-105.087,"pop":115368},{"name":"Beaumont","lat":30.086,"lng":-94.102,"pop":115282},{"name":"Provo","lat":40.234,"lng":-111.659,"pop":115162},{"name":"Carlsbad","lat":33.158,"lng":-117.351,"pop":114746},{"name":"Odessa","lat":31.846,"lng":-102.368,"pop":114428},{"name":"Downey","lat":33.94,"lng":-118.133,"pop":114219},{"name":"Elmhurst","lat":40.736,"lng":-73.878,"pop":113364},{"name":"Costa Mesa","lat":33.641,"lng":-117.919,"pop":113204},{"name":"Miami Gardens","lat":25.942,"lng":-80.246,"pop":113187},{"name":"North Peoria","lat":40.718,"lng":-89.584,"pop":113004},{"name":"Fairfield","lat":38.249,"lng":-122.04,"pop":112970},{"name":"Lansing","lat":42.733,"lng":-84.556,"pop":112644},{"name":"Bushwick","lat":40.694,"lng":-73.919,"pop":112620},{"name":"Gravesend","lat":40.598,"lng":-73.965,"pop":112229},{"name":"Elgin","lat":42.037,"lng":-88.281,"pop":112111},{"name":"West Jordan","lat":40.61,"lng":-111.939,"pop":111946},{"name":"Inglewood","lat":33.962,"lng":-118.353,"pop":111666},{"name":"Tuscaloosa","lat":33.21,"lng":-87.569,"pop":111338},{"name":"Richardson","lat":32.948,"lng":-96.73,"pop":110815},{"name":"Lowell","lat":42.633,"lng":-71.316,"pop":110699},{"name":"East Independence","lat":39.096,"lng":-94.355,"pop":110675},{"name":"Gresham","lat":45.498,"lng":-122.431,"pop":110553},{"name":"Antioch","lat":38.005,"lng":-121.806,"pop":110542},{"name":"Cambridge","lat":42.375,"lng":-71.106,"pop":110402},{"name":"High Point","lat":35.956,"lng":-80.005,"pop":110268},{"name":"Manchester","lat":42.996,"lng":-71.455,"pop":110229},{"name":"Temecula","lat":33.494,"lng":-117.148,"pop":110003},{"name":"Murrieta","lat":33.554,"lng":-117.214,"pop":109830},{"name":"Centennial","lat":39.579,"lng":-104.877,"pop":109741},{"name":"Pueblo","lat":38.254,"lng":-104.609,"pop":109412},{"name":"Pearland","lat":29.564,"lng":-95.286,"pop":108821},{"name":"Waterbury","lat":41.558,"lng":-73.052,"pop":108802},{"name":"Greeley","lat":40.423,"lng":-104.709,"pop":108795},{"name":"West Covina","lat":34.069,"lng":-117.939,"pop":108484},{"name":"Enterprise","lat":36.025,"lng":-115.242,"pop":108481},{"name":"North Charleston","lat":32.855,"lng":-79.975,"pop":108304},{"name":"Everett","lat":47.979,"lng":-122.202,"pop":108010},{"name":"College Station","lat":30.628,"lng":-96.334,"pop":107889},{"name":"Pompano Beach","lat":26.238,"lng":-80.125,"pop":107762},{"name":"South Fulton","lat":33.593,"lng":-84.673,"pop":107436},{"name":"Norwalk","lat":33.902,"lng":-118.082,"pop":107140},{"name":"Boulder","lat":40.015,"lng":-105.271,"pop":106803},{"name":"Broken Arrow","lat":36.053,"lng":-95.791,"pop":106563},{"name":"Daly City","lat":37.706,"lng":-122.462,"pop":106562},{"name":"Sandy Springs","lat":33.924,"lng":-84.379,"pop":105330},{"name":"Burbank","lat":34.181,"lng":-118.309,"pop":105319},{"name":"Green Bay","lat":44.519,"lng":-88.02,"pop":105207},{"name":"Santa Maria","lat":34.953,"lng":-120.436,"pop":105093},{"name":"Universal City","lat":34.139,"lng":-118.353,"pop":105000},{"name":"Wichita Falls","lat":33.914,"lng":-98.493,"pop":104710},{"name":"Lakeland","lat":28.039,"lng":-81.95,"pop":104401},{"name":"Clovis","lat":36.825,"lng":-119.703,"pop":104180},{"name":"Lewisville","lat":33.046,"lng":-96.994,"pop":104039},{"name":"Tyler","lat":32.351,"lng":-95.301,"pop":103700},{"name":"El Cajon","lat":32.795,"lng":-116.963,"pop":103679},{"name":"San Mateo","lat":37.563,"lng":-122.326,"pop":103536},{"name":"Brandon","lat":27.938,"lng":-82.286,"pop":103483},{"name":"Rialto","lat":34.106,"lng":-117.37,"pop":103132},{"name":"Davenport","lat":41.524,"lng":-90.578,"pop":102582},{"name":"Edison","lat":40.519,"lng":-74.412,"pop":102548},{"name":"Hillsboro","lat":45.523,"lng":-122.99,"pop":102347},{"name":"Las Cruces","lat":32.312,"lng":-106.778,"pop":101643},{"name":"South Bend","lat":41.683,"lng":-86.25,"pop":101516},{"name":"Albany","lat":42.653,"lng":-73.756,"pop":101228},{"name":"New Bedford","lat":41.635,"lng":-70.927,"pop":101079},{"name":"Vista","lat":33.2,"lng":-117.243,"pop":100890},{"name":"Davie","lat":26.063,"lng":-80.233,"pop":100882},{"name":"Chinatown","lat":37.797,"lng":-122.409,"pop":100574},{"name":"Renton","lat":47.483,"lng":-122.217,"pop":100242},{"name":"Roanoke","lat":37.271,"lng":-79.941,"pop":100011},{"name":"San Angelo","lat":31.464,"lng":-100.437,"pop":99893},{"name":"Kenosha","lat":42.585,"lng":-87.821,"pop":99858},{"name":"Clinton Township","lat":42.587,"lng":-82.92,"pop":99753},{"name":"Erie","lat":42.129,"lng":-80.085,"pop":99475},{"name":"Portsmouth Heights","lat":36.821,"lng":-76.369,"pop":99049},{"name":"Richmond Hill","lat":40.7,"lng":-73.831,"pop":98984},{"name":"Alief","lat":29.711,"lng":-95.596,"pop":98725},{"name":"Spring Hill","lat":28.477,"lng":-82.525,"pop":98621},{"name":"Compton","lat":33.896,"lng":-118.22,"pop":98462},{"name":"League City","lat":29.507,"lng":-95.095,"pop":98312},{"name":"Flint","lat":43.013,"lng":-83.687,"pop":98310},{"name":"Allen","lat":33.103,"lng":-96.671,"pop":98143},{"name":"Dorchester","lat":42.297,"lng":-71.075,"pop":97826},{"name":"Mission Viejo","lat":33.6,"lng":-117.672,"pop":97156},{"name":"Vacaville","lat":38.357,"lng":-121.988,"pop":96803},{"name":"Ventura","lat":34.278,"lng":-119.293,"pop":96769},{"name":"Highlands Ranch","lat":39.554,"lng":-104.969,"pop":96713},{"name":"Lawton","lat":34.609,"lng":-98.39,"pop":96655},{"name":"Beaverton","lat":45.487,"lng":-122.804,"pop":96577},{"name":"South Gate","lat":33.955,"lng":-118.212,"pop":96401},{"name":"Portsmouth","lat":36.835,"lng":-76.298,"pop":96201},{"name":"Sparks","lat":39.535,"lng":-119.753,"pop":96094},{"name":"Yuma","lat":32.725,"lng":-114.624,"pop":95548},{"name":"Brockton","lat":42.083,"lng":-71.018,"pop":95314},{"name":"Dearborn","lat":42.322,"lng":-83.176,"pop":95171},{"name":"Federal Way","lat":47.322,"lng":-122.313,"pop":95171},{"name":"Lee's Summit","lat":38.911,"lng":-94.382,"pop":95094},{"name":"Asheville","lat":35.601,"lng":-82.554,"pop":95056},{"name":"Spokane Valley","lat":47.673,"lng":-117.239,"pop":94919},{"name":"Fordham","lat":40.859,"lng":-73.898,"pop":94678},{"name":"Livonia","lat":42.368,"lng":-83.353,"pop":94635},{"name":"Roswell","lat":34.023,"lng":-84.362,"pop":94501},{"name":"Orem","lat":40.297,"lng":-111.695,"pop":94457},{"name":"Fall River","lat":41.701,"lng":-71.155,"pop":94000},{"name":"Lawrence","lat":38.972,"lng":-95.235,"pop":93917},{"name":"The Woodlands","lat":30.158,"lng":-95.489,"pop":93847},{"name":"West Albany","lat":42.683,"lng":-73.778,"pop":93794},{"name":"Yakima","lat":46.602,"lng":-120.506,"pop":93701},{"name":"Quincy","lat":42.253,"lng":-71.002,"pop":93618},{"name":"Flatbush","lat":40.652,"lng":-73.959,"pop":93361},{"name":"Hesperia","lat":34.426,"lng":-117.301,"pop":93295},{"name":"Carson","lat":33.831,"lng":-118.282,"pop":93281},{"name":"Boca Raton","lat":26.359,"lng":-80.083,"pop":93235},{"name":"Santa Monica","lat":34.019,"lng":-118.491,"pop":93220},{"name":"San Marcos","lat":33.143,"lng":-117.166,"pop":92931},{"name":"Boyle Heights","lat":34.034,"lng":-118.205,"pop":92785},{"name":"Plantation","lat":26.134,"lng":-80.232,"pop":92560},{"name":"Lynn","lat":42.467,"lng":-70.949,"pop":92457},{"name":"Miami Beach","lat":25.791,"lng":-80.13,"pop":92312},{"name":"Arden-Arcade","lat":38.602,"lng":-121.379,"pop":92186},{"name":"Longmont","lat":40.167,"lng":-105.102,"pop":92088},{"name":"Santa Barbara","lat":34.421,"lng":-119.698,"pop":91842},{"name":"Redding","lat":40.587,"lng":-122.392,"pop":91582},{"name":"Macon","lat":32.841,"lng":-83.632,"pop":91351},{"name":"Meridian","lat":43.612,"lng":-116.392,"pop":90739},{"name":"San Leandro","lat":37.725,"lng":-122.156,"pop":90712},{"name":"Greenville","lat":35.613,"lng":-77.366,"pop":90597},{"name":"Edmond","lat":35.653,"lng":-97.478,"pop":90092},{"name":"Nampa","lat":43.541,"lng":-116.563,"pop":89839},{"name":"Trenton","lat":40.217,"lng":-74.743,"pop":89620},{"name":"Sandy Hills","lat":40.581,"lng":-111.851,"pop":89575},{"name":"Newton","lat":42.337,"lng":-71.209,"pop":88817},{"name":"Toms River","lat":39.954,"lng":-74.198,"pop":88791},{"name":"Carmel","lat":39.978,"lng":-86.118,"pop":88713},{"name":"Waukegan","lat":42.364,"lng":-87.845,"pop":88475},{"name":"Deltona","lat":28.901,"lng":-81.264,"pop":88474},{"name":"Hawthorne","lat":33.916,"lng":-118.353,"pop":88451},{"name":"Fort Smith","lat":35.386,"lng":-94.399,"pop":88194},{"name":"Suffolk","lat":36.728,"lng":-76.585,"pop":88161},{"name":"Sugar Land","lat":29.62,"lng":-95.635,"pop":88156},{"name":"Livermore","lat":37.682,"lng":-121.768,"pop":88126},{"name":"Nashua","lat":42.765,"lng":-71.468,"pop":87970},{"name":"Reading","lat":40.336,"lng":-75.927,"pop":87879},{"name":"Indio","lat":33.721,"lng":-116.217,"pop":87533},{"name":"Rio Rancho","lat":35.233,"lng":-106.664,"pop":87521},{"name":"Enchanted Hills","lat":35.337,"lng":-106.593,"pop":87521},{"name":"Santa Fe","lat":35.687,"lng":-105.938,"pop":87505},{"name":"Sandy","lat":40.592,"lng":-111.884,"pop":87461},{"name":"Whittier","lat":33.979,"lng":-118.033,"pop":87438},{"name":"Canarsie","lat":40.644,"lng":-73.901,"pop":87366},{"name":"Kirkland","lat":47.681,"lng":-122.209,"pop":87281},{"name":"Menifee","lat":33.728,"lng":-117.146,"pop":87174},{"name":"Newport Beach","lat":33.619,"lng":-117.929,"pop":87127},{"name":"Tracy","lat":37.74,"lng":-121.426,"pop":87075},{"name":"Citrus Heights","lat":38.707,"lng":-121.281,"pop":87056},{"name":"Bend","lat":44.058,"lng":-121.315,"pop":87014},{"name":"Canton","lat":42.309,"lng":-83.482,"pop":86825},{"name":"Lehigh Acres","lat":26.625,"lng":-81.625,"pop":86784},{"name":"Greenburgh","lat":41.033,"lng":-73.843,"pop":86764},{"name":"Bloomington","lat":44.841,"lng":-93.298,"pop":86435},{"name":"West Town","lat":41.894,"lng":-87.675,"pop":86429},{"name":"Germantown","lat":39.173,"lng":-77.272,"pop":86395},{"name":"Clifton","lat":40.858,"lng":-74.164,"pop":86334},{"name":"Duluth","lat":46.783,"lng":-92.107,"pop":86110},{"name":"Champaign","lat":40.116,"lng":-88.243,"pop":86096},{"name":"Near North Side","lat":41.9,"lng":-87.635,"pop":85711},{"name":"Chino","lat":34.012,"lng":-117.689,"pop":85595},{"name":"Ogden","lat":41.223,"lng":-111.974,"pop":85444},{"name":"Redwood City","lat":37.485,"lng":-122.236,"pop":85288},{"name":"Bellingham","lat":48.76,"lng":-122.488,"pop":85146},{"name":"O'Fallon","lat":38.811,"lng":-90.7,"pop":85040},{"name":"Hoover","lat":33.405,"lng":-86.811,"pop":84848},{"name":"Melbourne","lat":28.084,"lng":-80.608,"pop":84678},{"name":"Danbury","lat":41.395,"lng":-73.454,"pop":84657},{"name":"East Norwalk","lat":41.106,"lng":-73.398,"pop":84530},{"name":"Edinburg","lat":26.302,"lng":-98.163,"pop":84497},{"name":"Sunrise","lat":26.134,"lng":-80.113,"pop":84439},{"name":"Cicero","lat":41.846,"lng":-87.754,"pop":83886},{"name":"Hemet","lat":33.748,"lng":-116.973,"pop":83861},{"name":"San Pedro","lat":33.736,"lng":-118.292,"pop":83556},{"name":"Ahwatukee Foothills","lat":33.342,"lng":-111.984,"pop":83464},{"name":"Johns Creek","lat":34.029,"lng":-84.199,"pop":83335},{"name":"Mission","lat":26.216,"lng":-98.325,"pop":83298},{"name":"Troy","lat":42.606,"lng":-83.15,"pop":83280},{"name":"Buena Park","lat":33.868,"lng":-117.998,"pop":83270},{"name":"Mid-City","lat":34.041,"lng":-118.361,"pop":83000},{"name":"Palm Coast","lat":29.585,"lng":-81.208,"pop":82893},{"name":"Sioux City","lat":42.5,"lng":-96.4,"pop":82821},{"name":"Lake Forest","lat":33.647,"lng":-117.689,"pop":82492},{"name":"Merced","lat":37.302,"lng":-120.483,"pop":82436},{"name":"Longview","lat":32.501,"lng":-94.74,"pop":82287},{"name":"Bryan","lat":30.674,"lng":-96.37,"pop":82118},{"name":"Westland","lat":42.324,"lng":-83.4,"pop":82000},{"name":"Warwick","lat":41.7,"lng":-71.416,"pop":81699},{"name":"Farmington Hills","lat":42.485,"lng":-83.377,"pop":81330},{"name":"San Tan Valley","lat":33.191,"lng":-111.528,"pop":81321},{"name":"Mount Pleasant","lat":32.794,"lng":-79.863,"pop":81317},{"name":"Cranston","lat":41.78,"lng":-71.437,"pop":81073},{"name":"Largo","lat":27.91,"lng":-82.788,"pop":81000},{"name":"Homestead","lat":25.469,"lng":-80.478,"pop":80737},{"name":"South Suffolk","lat":36.717,"lng":-76.59,"pop":80690},{"name":"Avondale","lat":33.436,"lng":-112.35,"pop":80684},{"name":"Tustin","lat":33.746,"lng":-117.826,"pop":80583},{"name":"Mountain View","lat":37.386,"lng":-122.084,"pop":80435},{"name":"Napa","lat":38.297,"lng":-122.286,"pop":80434},{"name":"Somerville","lat":42.388,"lng":-71.1,"pop":80318},{"name":"Kendall","lat":25.679,"lng":-80.317,"pop":80241},{"name":"Parma","lat":41.405,"lng":-81.723,"pop":79937},{"name":"New Rochelle","lat":40.911,"lng":-73.782,"pop":79846},{"name":"Lynchburg","lat":37.414,"lng":-79.142,"pop":79812},{"name":"Medford","lat":42.327,"lng":-122.876,"pop":79805},{"name":"Deerfield Beach","lat":26.318,"lng":-80.1,"pop":79768},{"name":"Sylmar","lat":34.308,"lng":-118.449,"pop":79614},{"name":"Pleasanton","lat":37.662,"lng":-121.875,"pop":79510},{"name":"Belmont Cragin","lat":41.932,"lng":-87.769,"pop":79159},{"name":"Brooklyn Park","lat":45.094,"lng":-93.356,"pop":79149},{"name":"Goodyear","lat":33.435,"lng":-112.358,"pop":79003},{"name":"Kennewick","lat":46.211,"lng":-119.137,"pop":78896},{"name":"Alameda","lat":37.771,"lng":-122.261,"pop":78630},{"name":"Town 'n' Country","lat":28.011,"lng":-82.577,"pop":78442},{"name":"Bellflower","lat":33.882,"lng":-118.117,"pop":78441},{"name":"Chino Hills","lat":33.994,"lng":-117.759,"pop":78309},{"name":"Alafaya","lat":28.564,"lng":-81.211,"pop":78113},{"name":"Springdale","lat":36.187,"lng":-94.129,"pop":77859},{"name":"Racine","lat":42.726,"lng":-87.783,"pop":77742},{"name":"Hammond","lat":41.583,"lng":-87.5,"pop":77614},{"name":"Milpitas","lat":37.428,"lng":-121.907,"pop":77604},{"name":"Gary","lat":41.593,"lng":-87.346,"pop":77156},{"name":"Scranton","lat":41.409,"lng":-75.665,"pop":77118},{"name":"Baldwin Park","lat":34.085,"lng":-117.961,"pop":77071},{"name":"Auburn","lat":47.307,"lng":-122.228,"pop":77006},{"name":"Fishers","lat":39.956,"lng":-86.014,"pop":76794},{"name":"Saint Joseph","lat":39.769,"lng":-94.847,"pop":76780},{"name":"Pharr","lat":26.195,"lng":-98.184,"pop":76538},{"name":"Upland","lat":34.098,"lng":-117.648,"pop":76443},{"name":"Folsom","lat":38.678,"lng":-121.176,"pop":76375},{"name":"Baytown","lat":29.735,"lng":-94.977,"pop":76335},{"name":"San Ramon","lat":37.78,"lng":-121.978,"pop":76134},{"name":"Camden","lat":39.926,"lng":-75.12,"pop":76119},{"name":"Lake Charles","lat":30.213,"lng":-93.204,"pop":76070},{"name":"Kalamazoo","lat":42.292,"lng":-85.587,"pop":76041},{"name":"Brick","lat":40.059,"lng":-74.137,"pop":76021},{"name":"Arlington Heights","lat":42.088,"lng":-87.981,"pop":75926},{"name":"Plymouth","lat":45.011,"lng":-93.456,"pop":75907},{"name":"South Ozone Park","lat":40.67,"lng":-73.819,"pop":75878},{"name":"Doral","lat":25.82,"lng":-80.355,"pop":75874},{"name":"Waterford","lat":42.693,"lng":-83.412,"pop":75737},{"name":"Evanston","lat":42.041,"lng":-87.69,"pop":75527},{"name":"Manteca","lat":37.797,"lng":-121.216,"pop":75448},{"name":"Wyoming","lat":42.913,"lng":-85.705,"pop":75275},{"name":"Loveland","lat":40.398,"lng":-105.075,"pop":75182},{"name":"Cheektowaga","lat":42.903,"lng":-78.755,"pop":75178},{"name":"Kings Bridge","lat":40.879,"lng":-73.905,"pop":75132},{"name":"Bismarck","lat":46.808,"lng":-100.784,"pop":75092},{"name":"Perris","lat":33.783,"lng":-117.229,"pop":74971},{"name":"Bethlehem","lat":40.626,"lng":-75.37,"pop":74892},{"name":"Schaumburg","lat":42.033,"lng":-88.083,"pop":74693},{"name":"Gastonia","lat":35.262,"lng":-81.187,"pop":74543},{"name":"Union City","lat":37.596,"lng":-122.019,"pop":74494},{"name":"Bolingbrook","lat":41.699,"lng":-88.068,"pop":74306},{"name":"Iowa City","lat":41.661,"lng":-91.53,"pop":74220},{"name":"Layton","lat":41.06,"lng":-111.971,"pop":74143},{"name":"Missouri City","lat":29.619,"lng":-95.538,"pop":74139},{"name":"Appleton","lat":44.262,"lng":-88.415,"pop":74139},{"name":"Shelby","lat":42.671,"lng":-83.033,"pop":74099},{"name":"Fort Myers","lat":26.622,"lng":-81.841,"pop":74013},{"name":"Boynton Beach","lat":26.525,"lng":-80.066,"pop":73966},{"name":"Jonesboro","lat":35.842,"lng":-90.704,"pop":73907},{"name":"South Lawndale","lat":41.844,"lng":-87.713,"pop":73826},{"name":"Logan Square","lat":41.923,"lng":-87.699,"pop":73702},{"name":"Rapid City","lat":44.081,"lng":-103.231,"pop":73569},{"name":"Warner Robins","lat":32.616,"lng":-83.627,"pop":73490},{"name":"Rochester Hills","lat":42.658,"lng":-83.15,"pop":73424},{"name":"Decatur","lat":39.84,"lng":-88.955,"pop":73254},{"name":"Southfield","lat":42.473,"lng":-83.222,"pop":73156},{"name":"Saint George","lat":37.104,"lng":-113.584,"pop":72897},{"name":"New Britain","lat":41.661,"lng":-72.78,"pop":72808},{"name":"Daytona Beach","lat":29.211,"lng":-81.023,"pop":72647},{"name":"Franklin","lat":35.925,"lng":-86.869,"pop":72639},{"name":"Turlock","lat":37.495,"lng":-120.847,"pop":72292},{"name":"Temple","lat":31.098,"lng":-97.343,"pop":72277},{"name":"West Ridge","lat":42,"lng":-87.693,"pop":72211},{"name":"Apple Valley","lat":34.501,"lng":-117.186,"pop":72174},{"name":"Lynwood","lat":33.93,"lng":-118.211,"pop":71989},{"name":"Waukesha","lat":43.012,"lng":-88.231,"pop":71970},{"name":"Gulfport","lat":30.367,"lng":-89.093,"pop":71856},{"name":"Pawtucket","lat":41.879,"lng":-71.383,"pop":71591},{"name":"Lauderhill","lat":26.14,"lng":-80.213,"pop":71579},{"name":"Rock Hill","lat":34.925,"lng":-81.025,"pop":71548},{"name":"Silver Spring","lat":38.991,"lng":-77.026,"pop":71452},{"name":"West Gulfport","lat":30.404,"lng":-89.094,"pop":71329},{"name":"Flower Mound","lat":33.015,"lng":-97.097,"pop":71253},{"name":"Centreville","lat":38.84,"lng":-77.429,"pop":71135},{"name":"Passaic","lat":40.857,"lng":-74.128,"pop":71085},{"name":"Riverview","lat":27.866,"lng":-82.326,"pop":71050},{"name":"Redlands","lat":34.056,"lng":-117.183,"pop":71035},{"name":"Missoula","lat":46.872,"lng":-113.994,"pop":71022},{"name":"Rancho Cordova","lat":38.589,"lng":-121.303,"pop":71017},{"name":"New Braunfels","lat":29.703,"lng":-98.124,"pop":70543},{"name":"Cherry Hill","lat":39.935,"lng":-75.031,"pop":70475},{"name":"Flagstaff","lat":35.198,"lng":-111.651,"pop":70320},{"name":"Muncie","lat":40.193,"lng":-85.386,"pop":70087},{"name":"Mira Mesa","lat":32.916,"lng":-117.144,"pop":70000},{"name":"Woodland Hills","lat":34.168,"lng":-118.606,"pop":70000},{"name":"Weston","lat":26.1,"lng":-80.4,"pop":69959},{"name":"Frederick","lat":39.414,"lng":-77.411,"pop":69479},{"name":"Pasco","lat":46.24,"lng":-119.101,"pop":69451},{"name":"Pittsburg","lat":38.028,"lng":-121.885,"pop":69424},{"name":"Ridgewood","lat":40.7,"lng":-73.906,"pop":69317},{"name":"Palatine","lat":42.11,"lng":-88.034,"pop":69308},{"name":"North Richland Hills","lat":32.834,"lng":-97.229,"pop":69204},{"name":"Kissimmee","lat":28.305,"lng":-81.417,"pop":69152},{"name":"Walnut Creek","lat":37.906,"lng":-122.065,"pop":68910},{"name":"Cordova","lat":35.156,"lng":-89.776,"pop":68779},{"name":"Mount Vernon","lat":40.913,"lng":-73.837,"pop":68628},{"name":"Conroe","lat":30.312,"lng":-95.456,"pop":68602},{"name":"Dothan","lat":31.223,"lng":-85.39,"pop":68567},{"name":"Northridge","lat":34.228,"lng":-118.537,"pop":68469},{"name":"Waterloo","lat":42.493,"lng":-92.343,"pop":68460},{"name":"Maple Grove","lat":45.072,"lng":-93.456,"pop":68385},{"name":"Framingham","lat":42.279,"lng":-71.416,"pop":68318},{"name":"Redondo Beach","lat":33.849,"lng":-118.388,"pop":68166},{"name":"Bossier City","lat":32.516,"lng":-93.732,"pop":68094},{"name":"Yorba Linda","lat":33.889,"lng":-117.813,"pop":67973},{"name":"Woodbury","lat":44.924,"lng":-92.959,"pop":67855},{"name":"Eau Claire","lat":44.811,"lng":-91.498,"pop":67778},{"name":"Waldorf","lat":38.625,"lng":-76.939,"pop":67752},{"name":"Forest Hills","lat":40.716,"lng":-73.85,"pop":67714},{"name":"Davis","lat":38.545,"lng":-121.741,"pop":67666},{"name":"Glen Burnie","lat":39.163,"lng":-76.625,"pop":67639},{"name":"Camarillo","lat":34.216,"lng":-119.038,"pop":67608},{"name":"Victoria","lat":28.805,"lng":-97.004,"pop":67574},{"name":"Gaithersburg","lat":39.143,"lng":-77.201,"pop":67456},{"name":"South San Francisco","lat":37.655,"lng":-122.408,"pop":67271},{"name":"Kenner","lat":29.994,"lng":-90.242,"pop":67091},{"name":"Jackson Heights","lat":40.756,"lng":-73.885,"pop":67067},{"name":"Rockville","lat":39.084,"lng":-77.153,"pop":66980},{"name":"Lincoln Park","lat":41.922,"lng":-87.648,"pop":66959},{"name":"Yuba City","lat":39.14,"lng":-121.617,"pop":66941},{"name":"Palo Alto","lat":37.442,"lng":-122.143,"pop":66853},{"name":"Casas Adobes","lat":32.323,"lng":-110.995,"pop":66795},{"name":"Marysville","lat":48.052,"lng":-122.177,"pop":66773},{"name":"South Jordan","lat":40.562,"lng":-111.93,"pop":66648},{"name":"Oshkosh","lat":44.025,"lng":-88.543,"pop":66555},{"name":"North Little Rock","lat":34.77,"lng":-92.267,"pop":66504},{"name":"Bayside","lat":40.768,"lng":-73.777,"pop":66455},{"name":"Bayonne","lat":40.669,"lng":-74.114,"pop":66311},{"name":"Eagan","lat":44.804,"lng":-93.167,"pop":66286},{"name":"Delray Beach","lat":26.461,"lng":-80.073,"pop":66255},{"name":"Johnson City","lat":36.313,"lng":-82.353,"pop":66027},{"name":"Dale City","lat":38.637,"lng":-77.311,"pop":65969},{"name":"Cedar Park","lat":30.505,"lng":-97.82,"pop":65945},{"name":"Parkchester","lat":40.839,"lng":-73.86,"pop":65876},{"name":"Atascocita","lat":29.999,"lng":-95.177,"pop":65844},{"name":"Saint Cloud","lat":45.561,"lng":-94.162,"pop":65842},{"name":"Ellicott City","lat":39.267,"lng":-76.798,"pop":65834},{"name":"Laguna Niguel","lat":33.523,"lng":-117.708,"pop":65806},{"name":"Saint Charles","lat":38.784,"lng":-90.481,"pop":65794},{"name":"Harlingen","lat":26.191,"lng":-97.696,"pop":65774},{"name":"San Clemente","lat":33.427,"lng":-117.612,"pop":65526},{"name":"West Lynchburg","lat":37.403,"lng":-79.178,"pop":65517},{"name":"Middletown","lat":40.394,"lng":-74.117,"pop":65490},{"name":"Framingham Center","lat":42.297,"lng":-71.437,"pop":65413},{"name":"Schenectady","lat":42.814,"lng":-73.94,"pop":65305},{"name":"Cheyenne","lat":41.14,"lng":-104.82,"pop":65132},{"name":"Broomfield","lat":39.921,"lng":-105.087,"pop":65065},{"name":"Ames","lat":42.035,"lng":-93.62,"pop":65060},{"name":"Park Slope","lat":40.67,"lng":-73.986,"pop":65047},{"name":"Shawnee","lat":39.042,"lng":-94.72,"pop":65046},{"name":"Reseda","lat":34.201,"lng":-118.536,"pop":65000},{"name":"Conway","lat":35.089,"lng":-92.442,"pop":64980},{"name":"East Orange","lat":40.767,"lng":-74.205,"pop":64949},{"name":"Portage Park","lat":41.958,"lng":-87.765,"pop":64841},{"name":"Skokie","lat":42.033,"lng":-87.733,"pop":64821},{"name":"West Bloomfield Township","lat":42.569,"lng":-83.384,"pop":64690},{"name":"Tamarac","lat":26.213,"lng":-80.25,"pop":64681},{"name":"Youngstown","lat":41.1,"lng":-80.65,"pop":64628},{"name":"Lodi","lat":38.13,"lng":-121.272,"pop":64596},{"name":"North Hollywood","lat":34.172,"lng":-118.379,"pop":64587},{"name":"Celina","lat":33.325,"lng":-96.784,"pop":64427},{"name":"Mansfield","lat":32.563,"lng":-97.142,"pop":64274},{"name":"Santa Cruz","lat":36.974,"lng":-122.031,"pop":64220},{"name":"Pico Rivera","lat":33.983,"lng":-118.097,"pop":64218},{"name":"Madera","lat":36.961,"lng":-120.061,"pop":64208},{"name":"Janesville","lat":42.683,"lng":-89.019,"pop":64123},{"name":"West Des Moines","lat":41.577,"lng":-93.711,"pop":64113},{"name":"Montebello","lat":34.009,"lng":-118.105,"pop":63921},{"name":"Georgetown","lat":30.633,"lng":-97.677,"pop":63716},{"name":"Alpharetta","lat":34.075,"lng":-84.294,"pop":63693},{"name":"Lorain","lat":41.453,"lng":-82.182,"pop":63647},{"name":"Bowling Green","lat":36.99,"lng":-86.444,"pop":63616},{"name":"Flatlands","lat":40.621,"lng":-73.935,"pop":63601},{"name":"Dundalk","lat":39.251,"lng":-76.521,"pop":63597},{"name":"Eden Prairie","lat":44.855,"lng":-93.471,"pop":63496},{"name":"North Bergen","lat":40.804,"lng":-74.012,"pop":63484},{"name":"Florence-Graham","lat":33.968,"lng":-118.244,"pop":63387},{"name":"Waltham","lat":42.376,"lng":-71.236,"pop":63378},{"name":"West Hartford","lat":41.762,"lng":-72.742,"pop":63268},{"name":"Rogers","lat":36.332,"lng":-94.119,"pop":63159},{"name":"Carol City","lat":25.941,"lng":-80.246,"pop":63031},{"name":"Encinitas","lat":33.037,"lng":-117.292,"pop":62930},{"name":"East Village","lat":40.729,"lng":-73.987,"pop":62832},{"name":"Haverhill","lat":42.776,"lng":-71.077,"pop":62765},{"name":"Jupiter","lat":26.934,"lng":-80.094,"pop":62707},{"name":"Council Bluffs","lat":41.262,"lng":-95.861,"pop":62597},{"name":"Wellington","lat":26.659,"lng":-80.241,"pop":62560},{"name":"West Coon Rapids","lat":45.16,"lng":-93.35,"pop":62528},{"name":"North Miami","lat":25.89,"lng":-80.187,"pop":62435},{"name":"Hamilton","lat":39.4,"lng":-84.561,"pop":62407},{"name":"North Port","lat":27.044,"lng":-82.236,"pop":62345},{"name":"Tulare","lat":36.208,"lng":-119.347,"pop":62315},{"name":"Coon Rapids","lat":45.12,"lng":-93.288,"pop":62240},{"name":"Millcreek","lat":40.687,"lng":-111.875,"pop":62139},{"name":"La Habra","lat":33.932,"lng":-117.946,"pop":62131},{"name":"Blaine","lat":45.161,"lng":-93.235,"pop":62124},{"name":"Lake Elsinore","lat":33.668,"lng":-117.327,"pop":61981},{"name":"Carmichael","lat":38.617,"lng":-121.328,"pop":61762},{"name":"Taylor","lat":42.241,"lng":-83.27,"pop":61568},{"name":"Burnsville","lat":44.768,"lng":-93.278,"pop":61481},{"name":"Monterey Park","lat":34.063,"lng":-118.123,"pop":61468},{"name":"Castro Valley","lat":37.694,"lng":-122.086,"pop":61388},{"name":"Irvington","lat":40.732,"lng":-74.235,"pop":61323},{"name":"Rocklin","lat":38.791,"lng":-121.236,"pop":61213},{"name":"Utica","lat":43.101,"lng":-75.233,"pop":61100},{"name":"Malden","lat":42.425,"lng":-71.066,"pop":61068},{"name":"National City","lat":32.678,"lng":-117.099,"pop":61060},{"name":"Financial District","lat":40.708,"lng":-74.009,"pop":60976},{"name":"Bethesda","lat":38.981,"lng":-77.1,"pop":60858},{"name":"Terre Haute","lat":39.467,"lng":-87.414,"pop":60825},{"name":"Vineland","lat":39.486,"lng":-75.026,"pop":60818},{"name":"West Hollywood","lat":26.021,"lng":-80.184,"pop":60806},{"name":"Brentwood","lat":40.781,"lng":-73.246,"pop":60664},{"name":"Lakeville","lat":44.65,"lng":-93.243,"pop":60633},{"name":"West Allis","lat":43.017,"lng":-88.007,"pop":60620},{"name":"Redmond","lat":47.674,"lng":-122.122,"pop":60598},{"name":"Canoga Park","lat":34.201,"lng":-118.598,"pop":60578},{"name":"Cupertino","lat":37.323,"lng":-122.032,"pop":60572},{"name":"Taylorsville","lat":40.668,"lng":-111.939,"pop":60514},{"name":"Bristol","lat":41.672,"lng":-72.949,"pop":60452},{"name":"Moore","lat":35.34,"lng":-97.487,"pop":60451},{"name":"Gardena","lat":33.888,"lng":-118.309,"pop":60447},{"name":"Petaluma","lat":38.232,"lng":-122.637,"pop":60438},{"name":"Bensalem","lat":40.105,"lng":-74.951,"pop":60427},{"name":"Grand Junction","lat":39.064,"lng":-108.551,"pop":60358},{"name":"Casper","lat":42.867,"lng":-106.313,"pop":60285},{"name":"Rowlett","lat":32.903,"lng":-96.564,"pop":60236},{"name":"La Mesa","lat":32.768,"lng":-117.023,"pop":60089},{"name":"Pine Hills","lat":28.558,"lng":-81.453,"pop":60076},{"name":"Bensonhurst","lat":40.602,"lng":-73.994,"pop":60000},{"name":"Coney Island","lat":40.578,"lng":-73.994,"pop":60000},{"name":"Rancho Penasquitos","lat":32.959,"lng":-117.115,"pop":60000},{"name":"Valley Glen","lat":34.186,"lng":-118.42,"pop":60000},{"name":"Meriden","lat":41.538,"lng":-72.807,"pop":59988},{"name":"Pontiac","lat":42.639,"lng":-83.291,"pop":59917},{"name":"Port Orange","lat":29.138,"lng":-80.996,"pop":59866},{"name":"Hamden","lat":41.396,"lng":-72.897,"pop":59847},{"name":"Fountainebleau","lat":25.773,"lng":-80.348,"pop":59764},{"name":"Saint Clair Shores","lat":42.497,"lng":-82.889,"pop":59715},{"name":"Great Falls","lat":47.5,"lng":-111.301,"pop":59638},{"name":"Chapel Hill","lat":35.913,"lng":-79.056,"pop":59568},{"name":"Canyon Country","lat":34.423,"lng":-118.472,"pop":59530},{"name":"Huntington Park","lat":33.982,"lng":-118.225,"pop":59430},{"name":"Coconut Creek","lat":26.252,"lng":-80.179,"pop":59302},{"name":"Leander","lat":30.579,"lng":-97.853,"pop":59202},{"name":"Idaho Falls","lat":43.467,"lng":-112.034,"pop":59184},{"name":"San Rafael","lat":37.974,"lng":-122.531,"pop":59162},{"name":"Noblesville","lat":40.046,"lng":-86.009,"pop":59093},{"name":"Marietta","lat":33.953,"lng":-84.55,"pop":59067},{"name":"Owensboro","lat":37.774,"lng":-87.113,"pop":59042},{"name":"Eastvale","lat":33.964,"lng":-117.564,"pop":59039},{"name":"Royal Oak","lat":42.489,"lng":-83.145,"pop":59008},{"name":"Dubuque","lat":42.501,"lng":-90.665,"pop":58799},{"name":"Brookline","lat":42.332,"lng":-71.121,"pop":58732},{"name":"Novi","lat":42.481,"lng":-83.475,"pop":58723},{"name":"Des Plaines","lat":42.033,"lng":-87.883,"pop":58677},{"name":"Carson City","lat":39.164,"lng":-119.767,"pop":58639},{"name":"Orland Park","lat":41.63,"lng":-87.854,"pop":58619},{"name":"Bartlett","lat":35.205,"lng":-89.874,"pop":58579},{"name":"Woodland","lat":38.679,"lng":-121.773,"pop":58567},{"name":"Lehi","lat":40.392,"lng":-111.851,"pop":58486},{"name":"White Plains","lat":41.034,"lng":-73.763,"pop":58459},{"name":"Arcadia","lat":34.14,"lng":-118.035,"pop":58408},{"name":"Reston","lat":38.969,"lng":-77.341,"pop":58404},{"name":"Ocala","lat":29.187,"lng":-82.14,"pop":58218},{"name":"Clay","lat":43.186,"lng":-76.172,"pop":58206},{"name":"Central City","lat":33.44,"lng":-112.058,"pop":58161},{"name":"South Vineland","lat":39.446,"lng":-75.029,"pop":58122},{"name":"Sanford","lat":28.801,"lng":-81.273,"pop":58111},{"name":"Bowie","lat":38.943,"lng":-76.73,"pop":58025},{"name":"Kokomo","lat":40.486,"lng":-86.134,"pop":57995},{"name":"Wayne","lat":40.925,"lng":-74.277,"pop":57915},{"name":"Santee","lat":32.838,"lng":-116.974,"pop":57787},{"name":"Dublin","lat":37.702,"lng":-121.936,"pop":57721},{"name":"Palm Harbor","lat":28.078,"lng":-82.764,"pop":57439},{"name":"Midwest City","lat":35.45,"lng":-97.397,"pop":57249},{"name":"Center City","lat":39.951,"lng":-75.159,"pop":57239},{"name":"Margate","lat":26.245,"lng":-80.206,"pop":57234},{"name":"South Whittier","lat":33.95,"lng":-118.039,"pop":57156},{"name":"Tinley Park","lat":41.573,"lng":-87.784,"pop":57143},{"name":"Pflugerville","lat":30.439,"lng":-97.62,"pop":57122},{"name":"New Brunswick","lat":40.486,"lng":-74.452,"pop":57035},{"name":"Grand Forks","lat":47.925,"lng":-97.033,"pop":57011},{"name":"Fountain Valley","lat":33.709,"lng":-117.954,"pop":56987},{"name":"North Hills","lat":34.236,"lng":-118.485,"pop":56946},{"name":"Diamond Bar","lat":34.029,"lng":-117.81,"pop":56897},{"name":"Taunton","lat":41.9,"lng":-71.09,"pop":56789},{"name":"Oak Lawn","lat":41.711,"lng":-87.758,"pop":56781},{"name":"Union","lat":40.698,"lng":-74.263,"pop":56771},{"name":"Ankeny","lat":41.73,"lng":-93.606,"pop":56764},{"name":"Chicopee","lat":42.149,"lng":-72.608,"pop":56741},{"name":"Irving Park","lat":41.953,"lng":-87.736,"pop":56520},{"name":"Berwyn","lat":41.851,"lng":-87.794,"pop":56368},{"name":"Kendale Lakes","lat":25.708,"lng":-80.407,"pop":56148},{"name":"Smyrna","lat":33.884,"lng":-84.514,"pop":56146},{"name":"Dearborn Heights","lat":42.337,"lng":-83.273,"pop":56145},{"name":"Porterville","lat":36.065,"lng":-119.017,"pop":56058},{"name":"Piscataway","lat":40.499,"lng":-74.399,"pop":56044},{"name":"Hendersonville","lat":36.305,"lng":-86.62,"pop":56018},{"name":"Morningside Heights","lat":40.81,"lng":-73.963,"pop":55929},{"name":"Rocky Mount","lat":35.938,"lng":-77.791,"pop":55806},{"name":"Corvallis","lat":44.565,"lng":-123.262,"pop":55780},{"name":"Olympia","lat":47.045,"lng":-122.902,"pop":55733},{"name":"Valdosta","lat":30.833,"lng":-83.28,"pop":55724},{"name":"Hanford","lat":36.327,"lng":-119.646,"pop":55659},{"name":"Castle Rock","lat":39.372,"lng":-104.856,"pop":55591},{"name":"Greenwood","lat":39.614,"lng":-86.107,"pop":55586},{"name":"Chicago Lawn","lat":41.775,"lng":-87.696,"pop":55551},{"name":"Hempstead","lat":40.706,"lng":-73.619,"pop":55547},{"name":"Novato","lat":38.107,"lng":-122.57,"pop":55530},{"name":"Kettering","lat":39.69,"lng":-84.169,"pop":55525},{"name":"Shoreline","lat":47.756,"lng":-122.342,"pop":55439},{"name":"Paramount","lat":33.889,"lng":-118.16,"pop":55412},{"name":"Port Arthur","lat":29.885,"lng":-93.942,"pop":55340},{"name":"Abington","lat":40.121,"lng":-75.118,"pop":55310},{"name":"Anderson","lat":40.105,"lng":-85.68,"pop":55305},{"name":"Tamiami","lat":25.759,"lng":-80.398,"pop":55271},{"name":"Towson","lat":39.401,"lng":-76.602,"pop":55197},{"name":"North Chicopee","lat":42.183,"lng":-72.6,"pop":55179},{"name":"Uptown","lat":41.966,"lng":-87.653,"pop":55137},{"name":"Sarasota","lat":27.336,"lng":-82.531,"pop":55118},{"name":"Cypress Hills","lat":40.677,"lng":-73.891,"pop":54944},{"name":"West Haven","lat":41.271,"lng":-72.947,"pop":54927},{"name":"Rosemead","lat":34.081,"lng":-118.073,"pop":54908},{"name":"Edgewater","lat":41.983,"lng":-87.664,"pop":54873},{"name":"Highland","lat":34.128,"lng":-117.209,"pop":54854},{"name":"Mount Prospect","lat":42.066,"lng":-87.937,"pop":54747},{"name":"Colton","lat":34.074,"lng":-117.314,"pop":54621},{"name":"Encanto","lat":33.479,"lng":-112.078,"pop":54614},{"name":"Pocatello","lat":42.871,"lng":-112.446,"pop":54441},{"name":"Bradenton","lat":27.499,"lng":-82.575,"pop":54437},{"name":"Rogers Park","lat":42.009,"lng":-87.667,"pop":54402},{"name":"Weymouth","lat":42.221,"lng":-70.94,"pop":54395},{"name":"Port Charlotte","lat":26.976,"lng":-82.091,"pop":54392},{"name":"Normal","lat":40.514,"lng":-88.991,"pop":54373},{"name":"Spring","lat":30.08,"lng":-95.417,"pop":54298},{"name":"Allapattah","lat":25.815,"lng":-80.224,"pop":54289},{"name":"Richland","lat":46.286,"lng":-119.284,"pop":54248},{"name":"Euless","lat":32.837,"lng":-97.082,"pop":54219},{"name":"Blue Springs","lat":39.017,"lng":-94.282,"pop":54148},{"name":"East Pensacola Heights","lat":30.429,"lng":-87.18,"pop":54104},{"name":"Hacienda Heights","lat":33.993,"lng":-117.969,"pop":54038},{"name":"Ozone Park","lat":40.677,"lng":-73.844,"pop":53985},{"name":"Briarwood","lat":40.709,"lng":-73.815,"pop":53877},{"name":"Cathedral City","lat":33.78,"lng":-116.465,"pop":53826},{"name":"Elyria","lat":41.368,"lng":-82.108,"pop":53775},{"name":"Pensacola","lat":30.421,"lng":-87.217,"pop":53724},{"name":"Wheaton","lat":41.866,"lng":-88.107,"pop":53715},{"name":"Commerce City","lat":39.808,"lng":-104.934,"pop":53696},{"name":"Hoboken","lat":40.744,"lng":-74.032,"pop":53635},{"name":"Watsonville","lat":36.91,"lng":-121.757,"pop":53628},{"name":"Lake Havasu City","lat":34.484,"lng":-114.322,"pop":53553},{"name":"Little Havana","lat":25.768,"lng":-80.233,"pop":53430},{"name":"Revere","lat":42.408,"lng":-71.012,"pop":53422},{"name":"West New York","lat":40.788,"lng":-74.014,"pop":53366},{"name":"Yucaipa","lat":34.034,"lng":-117.043,"pop":53328},{"name":"Gilroy","lat":37.006,"lng":-121.568,"pop":53231},{"name":"Poinciana","lat":28.14,"lng":-81.458,"pop":53193},{"name":"University of Texas","lat":30.286,"lng":-97.739,"pop":53082},{"name":"Kingsport","lat":36.548,"lng":-82.562,"pop":53014},{"name":"Levittown","lat":40.155,"lng":-74.829,"pop":52983},{"name":"Palm Beach Gardens","lat":26.823,"lng":-80.139,"pop":52923},{"name":"Milford","lat":41.222,"lng":-73.056,"pop":52759},{"name":"Delano","lat":35.769,"lng":-119.247,"pop":52733},{"name":"West Sacramento","lat":38.58,"lng":-121.53,"pop":52721},{"name":"Huntersville","lat":35.411,"lng":-80.843,"pop":52704},{"name":"Perth Amboy","lat":40.507,"lng":-74.265,"pop":52682},{"name":"Sherman Oaks","lat":34.151,"lng":-118.449,"pop":52677},{"name":"Southaven","lat":34.989,"lng":-90.013,"pop":52589},{"name":"Saint Peters","lat":38.8,"lng":-90.627,"pop":52575},{"name":"Downtown DC","lat":38.894,"lng":-77.02,"pop":52560},{"name":"Harrisonburg","lat":38.45,"lng":-78.869,"pop":52538},{"name":"Peabody","lat":42.528,"lng":-70.929,"pop":52504},{"name":"Placentia","lat":33.872,"lng":-117.87,"pop":52495},{"name":"Lenexa","lat":38.954,"lng":-94.734,"pop":52490},{"name":"DeSoto","lat":32.59,"lng":-96.857,"pop":52486},{"name":"Burlington","lat":36.096,"lng":-79.438,"pop":52472},{"name":"South Hill","lat":47.141,"lng":-122.27,"pop":52431},{"name":"Elkhart","lat":41.682,"lng":-85.977,"pop":52348},{"name":"La Crosse","lat":43.801,"lng":-91.24,"pop":52306},{"name":"Oak Park","lat":41.885,"lng":-87.784,"pop":52287},{"name":"Florissant","lat":38.789,"lng":-90.323,"pop":52268},{"name":"Sammamish","lat":47.642,"lng":-122.08,"pop":52253},{"name":"Wakefield","lat":40.898,"lng":-73.852,"pop":52201},{"name":"Hoffman Estates","lat":42.043,"lng":-88.08,"pop":52138},{"name":"Albany Park","lat":41.968,"lng":-87.723,"pop":52079},{"name":"Methuen","lat":42.726,"lng":-71.191,"pop":52044},{"name":"Glendora","lat":34.136,"lng":-117.865,"pop":52009},{"name":"Queens Village","lat":40.727,"lng":-73.742,"pop":51919},{"name":"Brookhaven","lat":33.858,"lng":-84.34,"pop":51910},{"name":"Palm Desert","lat":33.723,"lng":-116.377,"pop":51869},{"name":"Joplin","lat":37.084,"lng":-94.513,"pop":51818},{"name":"Enid","lat":36.396,"lng":-97.878,"pop":51776},{"name":"Bonita Springs","lat":26.34,"lng":-81.779,"pop":51704},{"name":"Irondequoit","lat":43.213,"lng":-77.58,"pop":51692},{"name":"Caldwell","lat":43.663,"lng":-116.687,"pop":51686},{"name":"Minnetonka","lat":44.913,"lng":-93.503,"pop":51669},{"name":"Pinellas Park","lat":27.843,"lng":-82.7,"pop":51617},{"name":"Battle Creek","lat":42.317,"lng":-85.178,"pop":51589},{"name":"Casa Grande","lat":32.88,"lng":-111.757,"pop":51460},{"name":"South Shore","lat":41.762,"lng":-87.578,"pop":51451},{"name":"Mott Haven","lat":40.809,"lng":-73.923,"pop":51450},{"name":"The Villages","lat":28.934,"lng":-81.96,"pop":51442},{"name":"Grand Island","lat":40.925,"lng":-98.342,"pop":51440},{"name":"Grapevine","lat":32.934,"lng":-97.078,"pop":51404},{"name":"Stratford","lat":41.185,"lng":-73.133,"pop":51384},{"name":"Kentwood","lat":42.869,"lng":-85.645,"pop":51357},{"name":"City of Milford (balance)","lat":41.224,"lng":-73.062,"pop":51271},{"name":"Tigard","lat":45.431,"lng":-122.771,"pop":51253},{"name":"East Hartford","lat":41.782,"lng":-72.612,"pop":51252},{"name":"Plainfield","lat":40.634,"lng":-74.407,"pop":51217},{"name":"Leesburg","lat":39.116,"lng":-77.564,"pop":51209},{"name":"Parsippany","lat":40.858,"lng":-74.426,"pop":51144},{"name":"Coral Gables","lat":25.721,"lng":-80.268,"pop":51117},{"name":"The Trails of Frisco","lat":33.161,"lng":-96.872,"pop":51059},{"name":"The Hammocks","lat":25.671,"lng":-80.445,"pop":51003},{"name":"Buckeye","lat":33.37,"lng":-112.584,"pop":50876},{"name":"Flagami","lat":25.762,"lng":-80.316,"pop":50834},{"name":"Catalina Foothills","lat":32.298,"lng":-110.919,"pop":50796},{"name":"North La Crosse","lat":43.846,"lng":-91.248,"pop":50470},{"name":"Burien","lat":47.47,"lng":-122.347,"pop":50467},{"name":"Havertown","lat":39.981,"lng":-75.309,"pop":50430},{"name":"Logan","lat":41.735,"lng":-111.834,"pop":50371},{"name":"South Peabody","lat":42.51,"lng":-70.949,"pop":50293},{"name":"Aliso Viejo","lat":33.565,"lng":-117.727,"pop":50195},{"name":"Harrisburg","lat":40.274,"lng":-76.884,"pop":50183},{"name":"Galveston","lat":29.301,"lng":-94.798,"pop":50180},{"name":"Poway","lat":32.963,"lng":-117.036,"pop":50157},{"name":"Edina","lat":44.89,"lng":-93.35,"pop":50138},{"name":"Minnetonka Mills","lat":44.941,"lng":-93.442,"pop":50117},{"name":"Stonecrest","lat":33.708,"lng":-84.135,"pop":50000},{"name":"Cerritos","lat":33.858,"lng":-118.065,"pop":49975},{"name":"Redford","lat":42.383,"lng":-83.297,"pop":49936},{"name":"East Honolulu","lat":21.289,"lng":-157.717,"pop":49914},{"name":"Sunnyside","lat":40.74,"lng":-73.935,"pop":49833},{"name":"Wharton","lat":39.927,"lng":-75.157,"pop":49732},{"name":"Whitman","lat":39.917,"lng":-75.155,"pop":49732},{"name":"Downers Grove","lat":41.809,"lng":-88.011,"pop":49732},{"name":"Azusa","lat":34.134,"lng":-117.908,"pop":49690},{"name":"Wilson","lat":35.721,"lng":-77.916,"pop":49643},{"name":"Monroe","lat":32.509,"lng":-92.119,"pop":49598},{"name":"Parker","lat":39.519,"lng":-104.761,"pop":49550},{"name":"La Mirada","lat":33.917,"lng":-118.012,"pop":49520},{"name":"Minot","lat":48.233,"lng":-101.296,"pop":49450},{"name":"Aloha","lat":45.494,"lng":-122.867,"pop":49425},{"name":"Saginaw","lat":43.419,"lng":-83.951,"pop":49347},{"name":"Bedford","lat":32.844,"lng":-97.143,"pop":49337},{"name":"Rancho Santa Margarita","lat":33.641,"lng":-117.603,"pop":49324},{"name":"Murray","lat":40.667,"lng":-111.888,"pop":49250},{"name":"Cuyahoga Falls","lat":41.134,"lng":-81.485,"pop":49146},{"name":"Coeur d'Alene","lat":47.678,"lng":-116.78,"pop":49122},{"name":"Bloomfield","lat":40.807,"lng":-74.185,"pop":49120},{"name":"Rowland Heights","lat":33.976,"lng":-117.905,"pop":48993},{"name":"Covina","lat":34.09,"lng":-117.89,"pop":48984},{"name":"Stillwater","lat":36.116,"lng":-97.058,"pop":48967},{"name":"Niagara Falls","lat":43.094,"lng":-79.057,"pop":48916},{"name":"Collierville","lat":35.042,"lng":-89.665,"pop":48863},{"name":"Oxford Circle","lat":40.05,"lng":-75.072,"pop":48856},{"name":"Summerville","lat":33.019,"lng":-80.176,"pop":48848},{"name":"South Bel Air","lat":39.533,"lng":-76.337,"pop":48828},{"name":"Sheboygan","lat":43.751,"lng":-87.715,"pop":48797},{"name":"Aspen Hill","lat":39.08,"lng":-77.073,"pop":48759},{"name":"Dunwoody","lat":33.946,"lng":-84.335,"pop":48733},{"name":"Huntington","lat":38.419,"lng":-82.445,"pop":48638},{"name":"Maricopa","lat":33.058,"lng":-112.048,"pop":48602},{"name":"Cedar Hill","lat":32.588,"lng":-96.956,"pop":48507},{"name":"East Brunswick","lat":40.428,"lng":-74.416,"pop":48495},{"name":"East Lansing","lat":42.737,"lng":-84.484,"pop":48471},{"name":"Apopka","lat":28.676,"lng":-81.512,"pop":48382},{"name":"Maspeth","lat":40.723,"lng":-73.913,"pop":48325},{"name":"Mishawaka","lat":41.662,"lng":-86.159,"pop":48261},{"name":"Portage","lat":42.201,"lng":-85.58,"pop":48177},{"name":"West Orange","lat":40.799,"lng":-74.239,"pop":48131},{"name":"McLean","lat":38.934,"lng":-77.177,"pop":48115},{"name":"Ceres","lat":37.595,"lng":-120.958,"pop":47963},{"name":"Chesterfield","lat":38.663,"lng":-90.577,"pop":47864},{"name":"Barnstable","lat":41.7,"lng":-70.299,"pop":47821},{"name":"Salina","lat":38.84,"lng":-97.611,"pop":47813},{"name":"Bel Air South","lat":39.505,"lng":-76.32,"pop":47709},{"name":"Pearl City","lat":21.397,"lng":-157.975,"pop":47698},{"name":"Euclid","lat":41.593,"lng":-81.527,"pop":47676},{"name":"Texas City","lat":29.384,"lng":-94.903,"pop":47618},{"name":"Wauwatosa","lat":43.049,"lng":-88.008,"pop":47614},{"name":"Vermont Square","lat":34.002,"lng":-118.299,"pop":47555},{"name":"Florin","lat":38.496,"lng":-121.409,"pop":47513},{"name":"Twin Falls","lat":42.563,"lng":-114.461,"pop":47468},{"name":"Glenview","lat":42.07,"lng":-87.788,"pop":47446},{"name":"East Providence","lat":41.814,"lng":-71.37,"pop":47408},{"name":"Palm Springs","lat":33.83,"lng":-116.545,"pop":47371},{"name":"San Luis Obispo","lat":35.283,"lng":-120.66,"pop":47339},{"name":"Mission District","lat":37.76,"lng":-122.419,"pop":47234},{"name":"Country Club","lat":25.948,"lng":-80.317,"pop":47105},{"name":"Gwynn Oak","lat":39.333,"lng":-76.693,"pop":47092},{"name":"Winnetka","lat":34.213,"lng":-118.572,"pop":47000},{"name":"Jeffersonville","lat":38.278,"lng":-85.737,"pop":46960},{"name":"San Jacinto","lat":33.784,"lng":-116.959,"pop":46951},{"name":"Mentor","lat":41.666,"lng":-81.34,"pop":46901},{"name":"Hattiesburg","lat":31.327,"lng":-89.29,"pop":46805},{"name":"Draper","lat":40.525,"lng":-111.864,"pop":46774},{"name":"Wylie","lat":33.015,"lng":-96.539,"pop":46708},{"name":"Laguna","lat":38.421,"lng":-121.424,"pop":46621},{"name":"Charlottesville","lat":38.029,"lng":-78.477,"pop":46597},{"name":"Lacey","lat":47.034,"lng":-122.823,"pop":46409},{"name":"Makakilo / Kapolei / Honokai Hale","lat":21.337,"lng":-158.097,"pop":46389},{"name":"Littleton","lat":39.613,"lng":-105.017,"pop":46368},{"name":"Beavercreek","lat":39.709,"lng":-84.063,"pop":46277},{"name":"Kannapolis","lat":35.487,"lng":-80.622,"pop":46144},{"name":"Binghamton","lat":42.099,"lng":-75.918,"pop":46032},{"name":"Brighton","lat":42.35,"lng":-71.156,"pop":45977}],"Canada":[{"name":"Toronto","lat":43.706,"lng":-79.399,"pop":2794356},{"name":"Montréal","lat":45.509,"lng":-73.588,"pop":1762949},{"name":"Calgary","lat":51.05,"lng":-114.085,"pop":1306784},{"name":"Ottawa","lat":45.411,"lng":-75.698,"pop":1017449},{"name":"Edmonton","lat":53.55,"lng":-113.469,"pop":1010899},{"name":"Winnipeg","lat":49.884,"lng":-97.147,"pop":749607},{"name":"Mississauga","lat":43.579,"lng":-79.658,"pop":717961},{"name":"Vancouver","lat":49.25,"lng":-123.119,"pop":662248},{"name":"Brampton","lat":43.683,"lng":-79.766,"pop":656480},{"name":"Hamilton","lat":43.25,"lng":-79.85,"pop":569353},{"name":"Surrey","lat":49.106,"lng":-122.825,"pop":568322},{"name":"Québec","lat":46.812,"lng":-71.215,"pop":531902},{"name":"Halifax","lat":44.643,"lng":-63.577,"pop":471559},{"name":"Laval","lat":45.57,"lng":-73.692,"pop":438366},{"name":"London","lat":42.983,"lng":-81.233,"pop":422324},{"name":"Etobicoke","lat":43.644,"lng":-79.57,"pop":365000},{"name":"Markham","lat":43.867,"lng":-79.266,"pop":338503},{"name":"Vaughan","lat":43.836,"lng":-79.498,"pop":323103},{"name":"Gatineau","lat":45.477,"lng":-75.702,"pop":300045},{"name":"Victoria","lat":48.436,"lng":-123.352,"pop":289625},{"name":"Saskatoon","lat":52.132,"lng":-106.669,"pop":266141},{"name":"Kitchener","lat":43.425,"lng":-80.511,"pop":256885},{"name":"Burnaby","lat":49.266,"lng":-122.953,"pop":249125},{"name":"Windsor","lat":42.3,"lng":-83.017,"pop":229660},{"name":"Longueuil","lat":45.515,"lng":-73.468,"pop":229330},{"name":"Regina","lat":50.45,"lng":-104.618,"pop":226404},{"name":"Oakville","lat":43.45,"lng":-79.683,"pop":213759},{"name":"Richmond","lat":49.17,"lng":-123.137,"pop":209937},{"name":"Richmond Hill","lat":43.871,"lng":-79.437,"pop":202022},{"name":"Burlington","lat":43.386,"lng":-79.837,"pop":186948},{"name":"Nepean","lat":45.336,"lng":-75.722,"pop":180000},{"name":"Oshawa","lat":43.9,"lng":-78.85,"pop":175383},{"name":"Greater Sudbury","lat":46.49,"lng":-80.99,"pop":166004},{"name":"Newton","lat":49.133,"lng":-122.85,"pop":159390},{"name":"Gloucester","lat":45.35,"lng":-75.633,"pop":150012},{"name":"Saguenay","lat":48.417,"lng":-71.066,"pop":148886},{"name":"Coquitlam","lat":49.285,"lng":-122.782,"pop":148625},{"name":"Barrie","lat":44.4,"lng":-79.666,"pop":147829},{"name":"Rosemont–La Petite-Patrie","lat":45.537,"lng":-73.607,"pop":146501},{"name":"Villeray–Saint-Michel–Parc-Extension","lat":45.559,"lng":-73.605,"pop":144814},{"name":"Kelowna","lat":49.883,"lng":-119.486,"pop":144576},{"name":"Trois-Rivières","lat":46.345,"lng":-72.548,"pop":144472},{"name":"Guelph","lat":43.546,"lng":-80.256,"pop":143740},{"name":"Lévis","lat":46.803,"lng":-71.178,"pop":143414},{"name":"Mercier–Hochelaga-Maisonneuve","lat":45.572,"lng":-73.546,"pop":142753},{"name":"Abbotsford","lat":49.058,"lng":-122.253,"pop":141397},{"name":"Whitby","lat":43.883,"lng":-78.933,"pop":138501},{"name":"St. Catharines","lat":43.171,"lng":-79.243,"pop":136803},{"name":"Ahuntsic-Cartierville","lat":45.567,"lng":-73.667,"pop":135336},{"name":"Le Vieux-Longueuil","lat":45.537,"lng":-73.508,"pop":135218},{"name":"Milton","lat":43.517,"lng":-79.883,"pop":132979},{"name":"Langley","lat":49.101,"lng":-122.659,"pop":132603},{"name":"Kingston","lat":44.23,"lng":-76.481,"pop":132485},{"name":"Cambridge","lat":43.36,"lng":-80.313,"pop":129920},{"name":"Sherbrooke","lat":45.4,"lng":-71.899,"pop":129447},{"name":"Orléans","lat":45.457,"lng":-75.504,"pop":125937},{"name":"Ottawa South","lat":45.392,"lng":-75.687,"pop":125090},{"name":"Saint-Louis-de-Terrebonne","lat":45.702,"lng":-73.787,"pop":119944},{"name":"Ajax","lat":43.85,"lng":-79.033,"pop":119677},{"name":"Saanich","lat":48.55,"lng":-123.369,"pop":117735},{"name":"Rivière-des-Prairies–Pointe-aux-Trembles","lat":45.641,"lng":-73.585,"pop":113868},{"name":"Terrebonne","lat":45.7,"lng":-73.647,"pop":111575},{"name":"Sainte-Foy","lat":46.781,"lng":-71.292,"pop":111300},{"name":"St. John's","lat":47.565,"lng":-52.709,"pop":110525},{"name":"Thunder Bay","lat":48.382,"lng":-89.25,"pop":108843},{"name":"La Cité-Limoilou","lat":46.829,"lng":-71.226,"pop":108415},{"name":"Sydney","lat":46.135,"lng":-60.183,"pop":105968},{"name":"Le Plateau-Mont-Royal","lat":45.528,"lng":-73.581,"pop":105813},{"name":"Waterloo","lat":43.467,"lng":-80.516,"pop":104986},{"name":"Ville-Marie","lat":45.499,"lng":-73.57,"pop":104944},{"name":"Brantford","lat":43.133,"lng":-80.266,"pop":104688},{"name":"Kamloops","lat":50.666,"lng":-120.319,"pop":104460},{"name":"Lethbridge","lat":49.7,"lng":-112.819,"pop":103197},{"name":"Whalley","lat":49.179,"lng":-122.867,"pop":102555},{"name":"Delta","lat":49.144,"lng":-122.907,"pop":101668},{"name":"Chilliwack","lat":49.166,"lng":-121.953,"pop":101491},{"name":"Dartmouth","lat":44.671,"lng":-63.577,"pop":101343},{"name":"Red Deer","lat":52.267,"lng":-113.802,"pop":100844},{"name":"Niagara Falls","lat":43.1,"lng":-79.066,"pop":99818},{"name":"Saint-Laurent","lat":45.5,"lng":-73.666,"pop":98828},{"name":"Saint-Jean-sur-Richelieu","lat":45.307,"lng":-73.263,"pop":98036},{"name":"Chomedey","lat":45.533,"lng":-73.75,"pop":94030},{"name":"Pickering","lat":43.9,"lng":-79.133,"pop":91771},{"name":"Newmarket","lat":44.05,"lng":-79.466,"pop":91034},{"name":"Nanaimo","lat":49.166,"lng":-123.94,"pop":90504},{"name":"Airdrie","lat":51.3,"lng":-114.035,"pop":90044},{"name":"Kanata","lat":45.3,"lng":-75.916,"pop":90000},{"name":"La Haute-Saint-Charles","lat":46.89,"lng":-71.372,"pop":88460},{"name":"North Vancouver","lat":49.316,"lng":-123.069,"pop":88168},{"name":"Montréal-Nord","lat":45.602,"lng":-73.631,"pop":86857},{"name":"Le Sud-Ouest","lat":45.472,"lng":-73.59,"pop":86347},{"name":"Moncton","lat":46.095,"lng":-64.796,"pop":86106},{"name":"Peterborough","lat":44.3,"lng":-78.316,"pop":85807},{"name":"Repentigny","lat":45.742,"lng":-73.45,"pop":84965},{"name":"Charlesbourg","lat":46.899,"lng":-71.305,"pop":82870},{"name":"Saint-Hubert","lat":45.5,"lng":-73.416,"pop":82548},{"name":"Maple Ridge","lat":49.219,"lng":-122.602,"pop":82256},{"name":"Beauport","lat":46.859,"lng":-71.192,"pop":81425},{"name":"East Hastings","lat":49.272,"lng":-123.062,"pop":80740},{"name":"Saint-Léonard","lat":45.588,"lng":-73.595,"pop":79495},{"name":"Willowdale","lat":43.767,"lng":-79.399,"pop":79440},{"name":"Prince George","lat":53.917,"lng":-122.753,"pop":78943},{"name":"New Westminster","lat":49.207,"lng":-122.911,"pop":78916},{"name":"South Surrey","lat":49.05,"lng":-122.792,"pop":77170},{"name":"Les Rivières","lat":46.818,"lng":-71.272,"pop":77000},{"name":"Caledon","lat":43.865,"lng":-79.993,"pop":76581},{"name":"Stoney Creek","lat":43.217,"lng":-79.766,"pop":76382},{"name":"Cloverdale","lat":49.108,"lng":-122.728,"pop":73355},{"name":"Pierrefonds-Roxboro","lat":45.502,"lng":-73.842,"pop":73194},{"name":"Nutana Sector","lat":52.1,"lng":-106.637,"pop":72564},{"name":"Sarnia","lat":42.979,"lng":-82.404,"pop":72125},{"name":"Sault Ste. Marie","lat":46.517,"lng":-84.333,"pop":72051},{"name":"Saint John","lat":45.271,"lng":-66.056,"pop":71808},{"name":"Sherwood Park","lat":53.517,"lng":-113.319,"pop":70618},{"name":"Grande Prairie","lat":55.167,"lng":-118.803,"pop":70385},{"name":"Confederation","lat":52.139,"lng":-106.704,"pop":70192},{"name":"Brossard","lat":45.45,"lng":-73.466,"pop":69575},{"name":"Verdun","lat":45.46,"lng":-73.571,"pop":69229},{"name":"Chicoutimi","lat":48.42,"lng":-71.064,"pop":69004},{"name":"Notre-Dame-de-Grâce","lat":45.477,"lng":-73.614,"pop":68152},{"name":"Fort McMurray","lat":56.727,"lng":-111.381,"pop":66573},{"name":"Granby","lat":45.4,"lng":-72.732,"pop":66222},{"name":"Waterfront Communities-The Island","lat":43.634,"lng":-79.377,"pop":65913},{"name":"Fleetwood","lat":49.167,"lng":-122.8,"pop":65565},{"name":"Guildford","lat":49.192,"lng":-122.8,"pop":64985},{"name":"Hull","lat":45.428,"lng":-75.711,"pop":63702},{"name":"Medicine Hat","lat":50.039,"lng":-110.677,"pop":63138},{"name":"Fredericton","lat":45.945,"lng":-66.666,"pop":63116},{"name":"Halton Hills","lat":43.64,"lng":-79.931,"pop":62951},{"name":"Brighouse-City Centre","lat":49.167,"lng":-123.133,"pop":62855},{"name":"Downtown Vancouver","lat":49.278,"lng":-123.128,"pop":62030},{"name":"Norfolk County","lat":42.833,"lng":-80.383,"pop":60847},{"name":"North Delta","lat":49.167,"lng":-122.917,"pop":60769},{"name":"Drummondville","lat":45.883,"lng":-72.482,"pop":59489},{"name":"Pierrefonds","lat":45.46,"lng":-73.893,"pop":59093},{"name":"Port Coquitlam","lat":49.266,"lng":-122.769,"pop":58000},{"name":"St. Albert","lat":53.633,"lng":-113.635,"pop":57719},{"name":"Aylmer","lat":45.4,"lng":-75.806,"pop":56542},{"name":"Saint-Michel","lat":45.568,"lng":-73.622,"pop":56420},{"name":"Aurora","lat":44,"lng":-79.466,"pop":55445},{"name":"Saint-Jérôme","lat":45.78,"lng":-74.004,"pop":54948},{"name":"Jonquière","lat":48.416,"lng":-71.249,"pop":54842},{"name":"Woburn","lat":43.767,"lng":-79.228,"pop":53485},{"name":"Metrotown","lat":49.225,"lng":-123,"pop":52355},{"name":"Welland","lat":42.983,"lng":-79.25,"pop":52293},{"name":"University Heights","lat":52.144,"lng":-106.579,"pop":51957},{"name":"Lower Sackville","lat":44.776,"lng":-63.679,"pop":51749},{"name":"Renfrew-Collingwood","lat":49.245,"lng":-123.038,"pop":51530},{"name":"Lakewood","lat":52.108,"lng":-106.59,"pop":51237},{"name":"Belleville","lat":44.167,"lng":-77.383,"pop":50716},{"name":"Willowdale East","lat":43.771,"lng":-79.401,"pop":50434},{"name":"North Bay","lat":46.317,"lng":-79.466,"pop":50396},{"name":"Saint-Hyacinthe","lat":45.631,"lng":-72.957,"pop":50326},{"name":"Whitchurch-Stouffville","lat":44,"lng":-79.316,"pop":49864},{"name":"Kensington-Cedar Cottage","lat":49.25,"lng":-123.067,"pop":49235},{"name":"Dollard-Des Ormeaux","lat":45.495,"lng":-73.824,"pop":48930},{"name":"Brandon","lat":49.847,"lng":-99.953,"pop":48859},{"name":"Cornwall","lat":45.018,"lng":-74.728,"pop":48821},{"name":"West End","lat":49.283,"lng":-123.133,"pop":47200},{"name":"Langford","lat":48.45,"lng":-123.503,"pop":46584},{"name":"Rouge","lat":43.804,"lng":-79.166,"pop":46496},{"name":"Blainville","lat":45.667,"lng":-73.882,"pop":46493},{"name":"Victoria-Downtown","lat":48.428,"lng":-123.361,"pop":46309},{"name":"West Vancouver","lat":49.329,"lng":-123.16,"pop":45487},{"name":"Georgetown","lat":43.65,"lng":-79.916,"pop":44058},{"name":"L'Amoreaux","lat":43.796,"lng":-79.314,"pop":43993},{"name":"Islington-City Centre West","lat":43.633,"lng":-79.543,"pop":43965},{"name":"Malvern","lat":43.809,"lng":-79.223,"pop":43794},{"name":"Quinte West","lat":44.183,"lng":-77.566,"pop":43577},{"name":"Chatham","lat":42.412,"lng":-82.185,"pop":43550},{"name":"Innisfil","lat":44.3,"lng":-79.65,"pop":43326},{"name":"Kitsilano","lat":49.267,"lng":-123.167,"pop":43045},{"name":"Salaberry-de-Valleyfield","lat":45.25,"lng":-74.133,"pop":42787},{"name":"Châteauguay","lat":45.383,"lng":-73.749,"pop":42786},{"name":"Rimouski","lat":48.449,"lng":-68.524,"pop":42240},{"name":"Saint-Eustache","lat":45.565,"lng":-73.906,"pop":42062},{"name":"Timmins","lat":48.467,"lng":-81.333,"pop":41788},{"name":"Sorel-Tracy","lat":46.042,"lng":-73.114,"pop":41629},{"name":"Mission","lat":49.133,"lng":-122.303,"pop":41519},{"name":"Strawberry Hill","lat":49.133,"lng":-122.883,"pop":41000},{"name":"Val-des-Arbres","lat":45.598,"lng":-73.675,"pop":40974},{"name":"Stittsville","lat":45.25,"lng":-75.916,"pop":40889},{"name":"Ancaster","lat":43.218,"lng":-79.987,"pop":40557},{"name":"Woodstock","lat":43.133,"lng":-80.75,"pop":40404},{"name":"Vernon","lat":50.267,"lng":-119.273,"pop":40116},{"name":"Bowmanville","lat":43.917,"lng":-78.683,"pop":39371},{"name":"Boucherville","lat":45.591,"lng":-73.436,"pop":39062},{"name":"Spruce Grove","lat":53.533,"lng":-113.919,"pop":38985},{"name":"St. Thomas","lat":42.774,"lng":-81.18,"pop":38909},{"name":"Charlottetown","lat":46.235,"lng":-63.126,"pop":38809},{"name":"Okanagan Mission","lat":49.817,"lng":-119.483,"pop":38374},{"name":"Shawinigan","lat":46.567,"lng":-72.749,"pop":38211},{"name":"Neufchâtel-Est–Lebourgneuf","lat":46.854,"lng":-71.342,"pop":37540},{"name":"Duvernay","lat":45.583,"lng":-73.667,"pop":37460},{"name":"Laval-des-Rapides","lat":45.556,"lng":-73.7,"pop":36933},{"name":"Stouffville","lat":43.967,"lng":-79.25,"pop":36753},{"name":"Dovercourt-Wallace Emerson-Junction","lat":43.666,"lng":-79.439,"pop":36625},{"name":"Sunset","lat":49.221,"lng":-123.095,"pop":36500},{"name":"Core Neighbourhoods","lat":52.13,"lng":-106.672,"pop":36088},{"name":"Leamington","lat":42.05,"lng":-82.6,"pop":35730},{"name":"Rock Forest","lat":45.357,"lng":-71.997,"pop":35500},{"name":"Prince Albert","lat":53.2,"lng":-105.768,"pop":35102},{"name":"Downsview-Roding-CFB","lat":43.733,"lng":-79.49,"pop":35052},{"name":"Parkwoods-Donalda","lat":43.755,"lng":-79.33,"pop":34805},{"name":"Rutland","lat":49.9,"lng":-119.386,"pop":34800},{"name":"Joliette","lat":46.016,"lng":-73.424,"pop":34772},{"name":"Cartierville","lat":45.531,"lng":-73.704,"pop":34667},{"name":"Mascouche","lat":45.75,"lng":-73.6,"pop":34626},{"name":"Mirabel","lat":45.65,"lng":-74.083,"pop":34626},{"name":"Lawson","lat":52.164,"lng":-106.639,"pop":34620},{"name":"Hastings-Sunrise","lat":49.283,"lng":-123.033,"pop":34575},{"name":"Victoriaville","lat":46.05,"lng":-71.966,"pop":34426},{"name":"Brant","lat":43.133,"lng":-80.35,"pop":34415},{"name":"Mimico","lat":43.616,"lng":-79.513,"pop":33964},{"name":"Moose Jaw","lat":50.4,"lng":-105.534,"pop":33890},{"name":"Parc-Extension","lat":45.53,"lng":-73.632,"pop":33800},{"name":"Penticton","lat":49.481,"lng":-119.586,"pop":33761},{"name":"Arcola East","lat":50.433,"lng":-104.536,"pop":33725},{"name":"Fairview","lat":49.263,"lng":-123.132,"pop":33620},{"name":"Surrey City Centre","lat":49.185,"lng":-122.847,"pop":33520},{"name":"Campbell River","lat":50.016,"lng":-125.245,"pop":33430},{"name":"West Humber-Clairville","lat":43.716,"lng":-79.596,"pop":33312},{"name":"Mount Pleasant","lat":49.267,"lng":-123.1,"pop":33000},{"name":"Mt Pleasant","lat":49.262,"lng":-123.1,"pop":32955},{"name":"Mount Olive-Silverstone-Jamestown","lat":43.747,"lng":-79.587,"pop":32954},{"name":"LaSalle","lat":42.245,"lng":-83.061,"pop":32721},{"name":"Chestermere","lat":51.033,"lng":-113.819,"pop":32255},{"name":"Cochrane","lat":51.183,"lng":-114.469,"pop":32199},{"name":"Snowdon","lat":45.486,"lng":-73.631,"pop":32160},{"name":"Lloydminster","lat":53.272,"lng":-110.023,"pop":31582},{"name":"Stratford","lat":43.367,"lng":-80.95,"pop":31465},{"name":"Chilliwack-Downtown","lat":49.164,"lng":-121.959,"pop":31410},{"name":"Côte-Saint-Luc","lat":45.465,"lng":-73.666,"pop":31395},{"name":"Church-Yonge Corridor","lat":43.66,"lng":-79.379,"pop":31340},{"name":"Willoughby","lat":49.126,"lng":-122.68,"pop":31305},{"name":"Niagara","lat":43.645,"lng":-79.407,"pop":31180},{"name":"Saint-Georges","lat":46.114,"lng":-70.665,"pop":31173},{"name":"Orillia","lat":44.609,"lng":-79.421,"pop":31166},{"name":"Victoria-Fraserview","lat":49.217,"lng":-123.067,"pop":31065},{"name":"Orangeville","lat":43.917,"lng":-80.1,"pop":30734},{"name":"Fort Erie","lat":42.9,"lng":-78.933,"pop":30710},{"name":"Annex","lat":43.672,"lng":-79.404,"pop":30526},{"name":"Glenfield-Jane Heights","lat":43.746,"lng":-79.513,"pop":30491},{"name":"Ville-Émard","lat":45.45,"lng":-73.602,"pop":30440},{"name":"Okotoks","lat":50.729,"lng":-113.983,"pop":30214},{"name":"Pointe-Claire","lat":45.449,"lng":-73.817,"pop":30161},{"name":"Bendale","lat":43.767,"lng":-79.253,"pop":29960},{"name":"Desmarchais-Crawford","lat":45.446,"lng":-73.582,"pop":29688},{"name":"North Cowichan","lat":48.841,"lng":-123.686,"pop":29676},{"name":"Mount Pleasant West","lat":43.704,"lng":-79.393,"pop":29658},{"name":"Alma","lat":48.55,"lng":-71.649,"pop":29526},{"name":"Killarney","lat":49.226,"lng":-123.043,"pop":29325},{"name":"Grandview-Woodlands","lat":49.277,"lng":-123.071,"pop":29175},{"name":"Agincourt North","lat":43.804,"lng":-79.275,"pop":29113},{"name":"Sainte-Julie","lat":45.583,"lng":-73.332,"pop":29019},{"name":"West Kelowna","lat":49.862,"lng":-119.583,"pop":28793},{"name":"Sept-Îles","lat":50.2,"lng":-66.382,"pop":28534},{"name":"Courtenay","lat":49.687,"lng":-124.994,"pop":28420},{"name":"Whitehorse","lat":60.716,"lng":-135.054,"pop":28201},{"name":"Fredericton Northside","lat":45.976,"lng":-66.641,"pop":28167},{"name":"Wexford/Maryvale","lat":43.749,"lng":-79.299,"pop":27917},{"name":"South Riverdale","lat":43.649,"lng":-79.336,"pop":27876},{"name":"Marpole","lat":49.214,"lng":-123.13,"pop":27843},{"name":"Banbury-Don Mills","lat":43.738,"lng":-79.35,"pop":27695},{"name":"York University Heights","lat":43.766,"lng":-79.489,"pop":27593},{"name":"Port Moody","lat":49.281,"lng":-122.825,"pop":27512},{"name":"Tam O'Shanter-Sullivan","lat":43.78,"lng":-79.295,"pop":27446},{"name":"West Hill","lat":43.767,"lng":-79.18,"pop":27392},{"name":"Saint-Constant","lat":45.367,"lng":-73.566,"pop":27359},{"name":"Grimsby","lat":43.2,"lng":-79.566,"pop":27314},{"name":"Dieppe","lat":46.078,"lng":-64.687,"pop":27304},{"name":"Conception Bay South","lat":47.5,"lng":-52.998,"pop":27168},{"name":"Don Valley Village","lat":43.783,"lng":-79.354,"pop":27051},{"name":"Clairlea-Birchmount","lat":43.714,"lng":-79.281,"pop":26984},{"name":"Bolton","lat":43.88,"lng":-79.738,"pop":26795},{"name":"Milliken","lat":43.825,"lng":-79.299,"pop":26572},{"name":"Boisbriand","lat":45.617,"lng":-73.832,"pop":26483},{"name":"Westminster-Branson","lat":43.779,"lng":-79.452,"pop":26274},{"name":"Beltline","lat":51.04,"lng":-114.071,"pop":25880},{"name":"Bay Street Corridor","lat":43.658,"lng":-79.386,"pop":25797},{"name":"Vaudreuil-Dorion","lat":45.4,"lng":-74.033,"pop":25789},{"name":"Thetford-Mines","lat":46.094,"lng":-71.305,"pop":25704},{"name":"Centretown","lat":45.415,"lng":-75.696,"pop":25687},{"name":"Walnut Grove","lat":49.165,"lng":-122.64,"pop":25683},{"name":"Coquitlam West","lat":49.257,"lng":-122.879,"pop":25656},{"name":"Downtown Halifax","lat":44.648,"lng":-63.578,"pop":25555},{"name":"Val-d'Or","lat":48.097,"lng":-77.797,"pop":25541},{"name":"Panorama Hills","lat":51.153,"lng":-114.081,"pop":25535},{"name":"Prince Edward","lat":44,"lng":-77.249,"pop":25496},{"name":"Sainte-Thérèse","lat":45.639,"lng":-73.828,"pop":25224},{"name":"Steveston","lat":49.127,"lng":-123.181,"pop":25220},{"name":"Stonegate-Queensway","lat":43.636,"lng":-79.501,"pop":25051},{"name":"Dorset Park","lat":43.754,"lng":-79.282,"pop":25003},{"name":"Brooklin","lat":43.958,"lng":-78.96,"pop":25000},{"name":"Fraser Heights","lat":49.2,"lng":-122.783,"pop":25000},{"name":"Fallingbrook","lat":45.476,"lng":-75.484,"pop":25000},{"name":"South Granville","lat":49.26,"lng":-123.139,"pop":24820},{"name":"Alta Vista","lat":45.386,"lng":-75.658,"pop":24726},{"name":"Steeles","lat":43.812,"lng":-79.331,"pop":24623},{"name":"Waterdown","lat":43.333,"lng":-79.883,"pop":24400},{"name":"Saint-Bruno-de-Montarville","lat":45.533,"lng":-73.349,"pop":24388},{"name":"Saddle Ridge","lat":51.133,"lng":-113.947,"pop":24365},{"name":"Midland","lat":44.75,"lng":-79.883,"pop":24353},{"name":"Coquitlam Town Centre","lat":49.277,"lng":-122.797,"pop":24282},{"name":"Chinatown","lat":49.28,"lng":-123.106,"pop":24000},{"name":"East Gwillimbury","lat":44.101,"lng":-79.438,"pop":23991},{"name":"Mile End","lat":45.524,"lng":-73.596,"pop":23977},{"name":"Outremont","lat":45.516,"lng":-73.609,"pop":23954},{"name":"High Park-Swansea","lat":43.645,"lng":-79.468,"pop":23925},{"name":"Brockville","lat":44.591,"lng":-75.687,"pop":23886},{"name":"Strathroy","lat":42.955,"lng":-81.622,"pop":23871},{"name":"Newtonbrook West","lat":43.786,"lng":-79.431,"pop":23831},{"name":"Squamish","lat":49.699,"lng":-123.156,"pop":23819},{"name":"Agincourt South-Malvern West","lat":43.789,"lng":-79.266,"pop":23757},{"name":"White Rock","lat":49.02,"lng":-122.795,"pop":23670},{"name":"Rouyn-Noranda","lat":48.237,"lng":-79.023,"pop":23504},{"name":"La Prairie","lat":45.417,"lng":-73.499,"pop":23357},{"name":"Bedford Park-Nortown","lat":43.731,"lng":-79.42,"pop":23236},{"name":"Tecumseh","lat":42.316,"lng":-82.884,"pop":23229},{"name":"Broadmoor","lat":49.15,"lng":-123.133,"pop":23050},{"name":"Ladner","lat":49.089,"lng":-123.082,"pop":23016},{"name":"Paradise","lat":47.529,"lng":-52.881,"pop":22957},{"name":"Cariboo","lat":49.25,"lng":-122.883,"pop":22780},{"name":"Eglinton East","lat":43.739,"lng":-79.246,"pop":22776},{"name":"Halifax West End","lat":44.649,"lng":-63.619,"pop":22664},{"name":"Vedder Crossing","lat":49.1,"lng":-121.967,"pop":22620},{"name":"Chambly","lat":45.45,"lng":-73.282,"pop":22608},{"name":"Riley Park","lat":49.243,"lng":-123.093,"pop":22555},{"name":"Mount Pearl","lat":47.517,"lng":-52.781,"pop":22477},{"name":"Englemount-Lawrence","lat":43.72,"lng":-79.437,"pop":22372},{"name":"Edmonds","lat":49.214,"lng":-122.94,"pop":22318},{"name":"Birchcliffe-Cliffside","lat":43.695,"lng":-79.265,"pop":22291},{"name":"Rockcliffe-Smythe","lat":43.675,"lng":-79.494,"pop":22246},{"name":"Duncan","lat":48.783,"lng":-123.703,"pop":22199},{"name":"High Park North","lat":43.656,"lng":-79.475,"pop":22162},{"name":"Willowridge-Martingrove-Richview","lat":43.684,"lng":-79.554,"pop":22156},{"name":"Kingsville","lat":42.1,"lng":-82.733,"pop":22119},{"name":"Kingsview Village-The Westway","lat":43.699,"lng":-79.548,"pop":22000},{"name":"Flemingdon Park","lat":43.718,"lng":-79.332,"pop":21933},{"name":"South Parkdale","lat":43.637,"lng":-79.439,"pop":21849},{"name":"Collingwood","lat":44.483,"lng":-80.216,"pop":21793},{"name":"Black Creek","lat":43.765,"lng":-79.522,"pop":21737},{"name":"Tsawwassen","lat":49.017,"lng":-123.083,"pop":21588},{"name":"The Beaches","lat":43.674,"lng":-79.295,"pop":21567},{"name":"Baie-Comeau","lat":49.217,"lng":-68.149,"pop":21536},{"name":"Bedford","lat":44.726,"lng":-63.667,"pop":21474},{"name":"Fort St. John","lat":56.25,"lng":-120.853,"pop":21465},{"name":"Bayview Village","lat":43.776,"lng":-79.38,"pop":21396},{"name":"East End-Danforth","lat":43.684,"lng":-79.299,"pop":21381},{"name":"Owen Sound","lat":44.567,"lng":-80.943,"pop":21341},{"name":"Gordon Head","lat":48.483,"lng":-123.317,"pop":21270},{"name":"Dunbar-Southlands","lat":49.242,"lng":-123.188,"pop":21245},{"name":"Oakwood Village","lat":43.683,"lng":-79.438,"pop":21210},{"name":"Uxbridge","lat":44.1,"lng":-79.116,"pop":21176},{"name":"Thorncliffe Park","lat":43.708,"lng":-79.35,"pop":21108},{"name":"Townline","lat":49.062,"lng":-122.36,"pop":21095},{"name":"Haney","lat":49.217,"lng":-122.6,"pop":21041},{"name":"Keswick","lat":44.25,"lng":-79.466,"pop":21000},{"name":"Varennes","lat":45.683,"lng":-73.432,"pop":20994},{"name":"Rosedale-Moore Park","lat":43.683,"lng":-79.38,"pop":20923},{"name":"Cranston","lat":50.889,"lng":-113.981,"pop":20850},{"name":"Clarence-Rockland","lat":45.55,"lng":-75.291,"pop":20790},{"name":"Evergreen","lat":50.929,"lng":-114.1,"pop":20780},{"name":"Fergus","lat":43.706,"lng":-80.378,"pop":20767},{"name":"Port Alberni","lat":49.241,"lng":-124.803,"pop":20712},{"name":"Wasaga Beach","lat":44.517,"lng":-80.016,"pop":20675},{"name":"Riverview","lat":46.055,"lng":-64.816,"pop":20584},{"name":"Renfrew Heights","lat":49.254,"lng":-123.032,"pop":20570},{"name":"Moss Park","lat":43.655,"lng":-79.372,"pop":20506},{"name":"Westmount","lat":45.483,"lng":-73.599,"pop":20494},{"name":"Kirkland","lat":45.45,"lng":-73.866,"pop":20491},{"name":"Ile-des-Soeurs","lat":45.46,"lng":-73.548,"pop":20461},{"name":"Camrose","lat":53.017,"lng":-112.835,"pop":20405},{"name":"Lindsay","lat":44.35,"lng":-78.733,"pop":20354},{"name":"Yellowknife","lat":62.454,"lng":-114.372,"pop":20340},{"name":"Cranbrook","lat":49.5,"lng":-115.769,"pop":20047},{"name":"Templeton-Est","lat":45.494,"lng":-75.588,"pop":20000},{"name":"Woodlawn","lat":44.677,"lng":-63.527,"pop":20000},{"name":"Halifax South End","lat":44.629,"lng":-63.577,"pop":19922},{"name":"Saint-Lazare","lat":45.4,"lng":-74.133,"pop":19889},{"name":"L'Île-Bizard–Sainte-Geneviève","lat":45.494,"lng":-73.896,"pop":19857},{"name":"Huntsville","lat":45.333,"lng":-79.216,"pop":19816},{"name":"Westwood Plateau","lat":49.305,"lng":-122.793,"pop":19776},{"name":"Lower Lonsdale","lat":49.314,"lng":-123.073,"pop":19718},{"name":"Tuscany","lat":51.124,"lng":-114.245,"pop":19700},{"name":"Maywood","lat":49.222,"lng":-123.006,"pop":19650},{"name":"Terrace","lat":54.516,"lng":-128.603,"pop":19443},{"name":"North Battleford","lat":52.78,"lng":-108.297,"pop":19440},{"name":"Salmon Arm","lat":50.7,"lng":-119.269,"pop":19432},{"name":"Corner Brook","lat":48.95,"lng":-57.952,"pop":19316},{"name":"Beaconsfield","lat":45.433,"lng":-73.866,"pop":19194},{"name":"Cole Harbour","lat":44.672,"lng":-63.475,"pop":19096},{"name":"Dorval","lat":45.447,"lng":-73.753,"pop":18980},{"name":"Mont-Royal","lat":45.517,"lng":-73.649,"pop":18933},{"name":"Beloeil","lat":45.568,"lng":-73.206,"pop":18927},{"name":"Alliston","lat":44.15,"lng":-79.866,"pop":18809},{"name":"Thorold","lat":43.117,"lng":-79.2,"pop":18801},{"name":"Quispamsis","lat":45.421,"lng":-65.951,"pop":18768},{"name":"Dewdney East","lat":50.454,"lng":-104.547,"pop":18715},{"name":"Evanston","lat":51.164,"lng":-114.123,"pop":18710},{"name":"O'Connor-Parkview","lat":43.707,"lng":-79.312,"pop":18675},{"name":"New Glasgow","lat":45.583,"lng":-62.649,"pop":18665},{"name":"Tillsonburg","lat":42.86,"lng":-80.726,"pop":18615},{"name":"North St.James Town","lat":43.67,"lng":-79.375,"pop":18615},{"name":"Eringate-Centennial-West Deane","lat":43.658,"lng":-79.58,"pop":18588},{"name":"Rivière-du-Loup","lat":47.827,"lng":-69.542,"pop":18586},{"name":"Pitt Meadows","lat":49.221,"lng":-122.69,"pop":18573},{"name":"Central Lonsdale","lat":49.326,"lng":-123.072,"pop":18485},{"name":"Downtown Eastside","lat":49.282,"lng":-123.094,"pop":18477},{"name":"Hespeler","lat":43.433,"lng":-80.316,"pop":18445},{"name":"Carey","lat":48.472,"lng":-123.395,"pop":18405},{"name":"Port Colborne","lat":42.9,"lng":-79.233,"pop":18306},{"name":"Wîhkwêntôwin","lat":53.543,"lng":-113.522,"pop":18180},{"name":"Cobourg","lat":43.96,"lng":-78.165,"pop":18099},{"name":"Auburn Bay","lat":50.888,"lng":-113.959,"pop":18090},{"name":"Blundell","lat":49.155,"lng":-123.157,"pop":18065},{"name":"Oak Bay","lat":48.45,"lng":-123.303,"pop":18015},{"name":"Stony Plain","lat":53.533,"lng":-114.002,"pop":17993},{"name":"Weston","lat":43.704,"lng":-79.515,"pop":17992},{"name":"Kensington-Chinatown","lat":43.654,"lng":-79.397,"pop":17945},{"name":"Amos","lat":48.567,"lng":-78.116,"pop":17918},{"name":"St. Andrew-Windfields","lat":43.756,"lng":-79.379,"pop":17812},{"name":"Brookhaven-Amesbury","lat":43.701,"lng":-79.486,"pop":17757},{"name":"Esquimalt","lat":48.436,"lng":-123.412,"pop":17655},{"name":"Taradale","lat":51.118,"lng":-113.937,"pop":17630},{"name":"Fiddlesticks","lat":43.395,"lng":-80.287,"pop":17576},{"name":"Miramichi","lat":47.029,"lng":-65.502,"pop":17537},{"name":"Niagara-on-the-Lake","lat":43.257,"lng":-79.085,"pop":17511},{"name":"Victoria Village","lat":43.728,"lng":-79.315,"pop":17510},{"name":"McKenzie Towne","lat":50.913,"lng":-113.967,"pop":17505},{"name":"Laflèche","lat":45.5,"lng":-73.466,"pop":17499},{"name":"Sylvan Lake","lat":52.311,"lng":-114.084,"pop":17477},{"name":"Saint-Lin-Laurentides","lat":45.85,"lng":-73.766,"pop":17463},{"name":"Morningside","lat":43.787,"lng":-79.206,"pop":17455},{"name":"Valley East","lat":46.645,"lng":-80.997,"pop":17451},{"name":"Deux-Montagnes","lat":45.535,"lng":-73.902,"pop":17402},{"name":"Les Coteaux","lat":45.283,"lng":-74.233,"pop":17396},{"name":"Central Saanich","lat":48.566,"lng":-123.419,"pop":17385},{"name":"Coventry Hills","lat":51.169,"lng":-114.059,"pop":17350},{"name":"Saint-Augustin-de-Desmaures","lat":46.741,"lng":-71.451,"pop":17281},{"name":"Petawawa","lat":45.895,"lng":-77.28,"pop":17187},{"name":"Danforth East York","lat":43.689,"lng":-79.331,"pop":17180},{"name":"Kennedy Park","lat":43.723,"lng":-79.261,"pop":17123},{"name":"Vanier","lat":45.44,"lng":-75.665,"pop":17000},{"name":"Willowdale West","lat":43.771,"lng":-79.428,"pop":16936},{"name":"Hillcrest Village","lat":43.805,"lng":-79.354,"pop":16934},{"name":"University Endowment Lands","lat":49.264,"lng":-123.239,"pop":16920},{"name":"Glace Bay","lat":46.197,"lng":-59.957,"pop":16915},{"name":"Colwood","lat":48.433,"lng":-123.486,"pop":16859},{"name":"Leaside-Bennington","lat":43.704,"lng":-79.366,"pop":16828},{"name":"Mount Pleasant East","lat":43.705,"lng":-79.385,"pop":16775},{"name":"Sainte-Catherine","lat":45.4,"lng":-73.582,"pop":16762},{"name":"Greenfield Park","lat":45.486,"lng":-73.462,"pop":16733},{"name":"Scarborough Village","lat":43.739,"lng":-79.221,"pop":16724},{"name":"Brocklehurst","lat":50.708,"lng":-120.413,"pop":16713},{"name":"Buckingham","lat":45.586,"lng":-75.421,"pop":16685},{"name":"Swift Current","lat":50.283,"lng":-107.801,"pop":16604},{"name":"Edmundston","lat":47.374,"lng":-68.325,"pop":16580},{"name":"Trinity-Bellwoods","lat":43.648,"lng":-79.408,"pop":16556},{"name":"Clayton Park West","lat":44.658,"lng":-63.669,"pop":16550},{"name":"L'Ancienne-Lorette","lat":46.794,"lng":-71.352,"pop":16516},{"name":"Armdale","lat":44.636,"lng":-63.626,"pop":16502},{"name":"Clanton Park","lat":43.742,"lng":-79.446,"pop":16472},{"name":"Stonebridge","lat":52.085,"lng":-106.623,"pop":16392},{"name":"Yorkton","lat":51.217,"lng":-102.468,"pop":16343},{"name":"Lutes Mountain","lat":46.135,"lng":-64.905,"pop":16311},{"name":"Lansing-Westgate","lat":43.754,"lng":-79.425,"pop":16164},{"name":"Newtonbrook East","lat":43.792,"lng":-79.406,"pop":16097},{"name":"Seafair","lat":49.15,"lng":-123.183,"pop":16070},{"name":"Bracebridge","lat":45.033,"lng":-79.316,"pop":16010},{"name":"Candiac","lat":45.383,"lng":-73.516,"pop":15947},{"name":"Cliffcrest","lat":43.722,"lng":-79.231,"pop":15935},{"name":"L'Assomption","lat":45.823,"lng":-73.429,"pop":15906},{"name":"Greater Napanee","lat":44.25,"lng":-76.949,"pop":15892},{"name":"Bathurst Manor","lat":43.765,"lng":-79.456,"pop":15873},{"name":"Maillardville","lat":49.238,"lng":-122.867,"pop":15837},{"name":"Steinbach","lat":49.526,"lng":-96.685,"pop":15829},{"name":"Pleasant View","lat":43.786,"lng":-79.335,"pop":15818},{"name":"Lake Country","lat":50.009,"lng":-119.397,"pop":15817},{"name":"Saint-Henri","lat":45.468,"lng":-73.601,"pop":15800},{"name":"Henry Farm","lat":43.77,"lng":-79.352,"pop":15723},{"name":"Mont-Saint-Hilaire","lat":45.565,"lng":-73.187,"pop":15720},{"name":"Taylor-Massey","lat":43.695,"lng":-79.296,"pop":15683},{"name":"Saint-Basile-le-Grand","lat":45.533,"lng":-73.282,"pop":15605},{"name":"Forest Heights","lat":43.419,"lng":-80.523,"pop":15581},{"name":"Leduc","lat":53.267,"lng":-113.552,"pop":15561},{"name":"Little Portugal","lat":43.647,"lng":-79.43,"pop":15559},{"name":"Magog","lat":45.267,"lng":-72.149,"pop":15550},{"name":"Humbermede","lat":43.752,"lng":-79.544,"pop":15545},{"name":"Edenbridge-Humber Valley","lat":43.671,"lng":-79.522,"pop":15535},{"name":"Central Coquitlam","lat":49.26,"lng":-122.838,"pop":15480},{"name":"Christopher-Champlain","lat":43.347,"lng":-80.302,"pop":15372},{"name":"Lougheed","lat":49.248,"lng":-122.892,"pop":15300},{"name":"Arbutus Ridge","lat":49.25,"lng":-123.169,"pop":15295},{"name":"Saint-Charles-Borromée","lat":46.05,"lng":-73.466,"pop":15285},{"name":"Saint John West","lat":45.259,"lng":-66.078,"pop":15255},{"name":"Edgemont","lat":51.126,"lng":-114.149,"pop":15225},{"name":"Saint-Vincent-de-Paul","lat":45.617,"lng":-73.649,"pop":15194},{"name":"Lawrence Park South","lat":43.717,"lng":-79.406,"pop":15179},{"name":"Kenora","lat":49.767,"lng":-94.49,"pop":15096},{"name":"Sooke","lat":48.375,"lng":-123.728,"pop":15086},{"name":"Harewood","lat":49.147,"lng":-123.947,"pop":8769}],"UK":[{"name":"London","lat":51.509,"lng":-0.126,"pop":8961989},{"name":"Birmingham","lat":52.481,"lng":-1.9,"pop":1157603},{"name":"Glasgow","lat":55.865,"lng":-4.258,"pop":626410},{"name":"Manchester","lat":53.481,"lng":-2.237,"pop":568996},{"name":"Sheffield","lat":53.383,"lng":-1.466,"pop":556500},{"name":"Leeds","lat":53.796,"lng":-1.548,"pop":536280},{"name":"Edinburgh","lat":55.952,"lng":-3.196,"pop":514990},{"name":"Liverpool","lat":53.411,"lng":-2.978,"pop":496770},{"name":"Bristol","lat":51.455,"lng":-2.597,"pop":479024},{"name":"Cardiff","lat":51.48,"lng":-3.18,"pop":372089},{"name":"Leicester","lat":52.639,"lng":-1.132,"pop":368600},{"name":"Bradford","lat":53.794,"lng":-1.752,"pop":366187},{"name":"Belfast","lat":54.597,"lng":-5.925,"pop":348005},{"name":"Coventry","lat":52.407,"lng":-1.512,"pop":345324},{"name":"Brent","lat":51.553,"lng":-0.302,"pop":329100},{"name":"Birkenhead","lat":53.393,"lng":-3.015,"pop":325264},{"name":"Nottingham","lat":52.954,"lng":-1.15,"pop":323632},{"name":"Islington","lat":51.536,"lng":-0.103,"pop":319143},{"name":"Reading","lat":51.456,"lng":-0.971,"pop":318014},{"name":"Kingston upon Hull","lat":53.745,"lng":-0.335,"pop":314018},{"name":"Preston","lat":53.763,"lng":-2.705,"pop":313332},{"name":"Swansea","lat":51.621,"lng":-3.943,"pop":300352},{"name":"Newcastle upon Tyne","lat":54.973,"lng":-1.614,"pop":300125},{"name":"Southend-on-Sea","lat":51.538,"lng":0.714,"pop":295310},{"name":"Brighton","lat":50.828,"lng":-0.139,"pop":283870},{"name":"Derby","lat":52.923,"lng":-1.477,"pop":270468},{"name":"Southampton","lat":50.904,"lng":-1.404,"pop":269781},{"name":"Wolverhampton","lat":52.585,"lng":-2.123,"pop":263700},{"name":"Plymouth","lat":50.372,"lng":-4.143,"pop":260203},{"name":"Stoke-on-Trent","lat":53.004,"lng":-2.185,"pop":258366},{"name":"Milton Keynes","lat":52.042,"lng":-0.756,"pop":256385},{"name":"City of Westminster","lat":51.498,"lng":-0.136,"pop":247614},{"name":"Northampton","lat":52.25,"lng":-0.883,"pop":245899},{"name":"Oldham","lat":53.541,"lng":-2.118,"pop":237110},{"name":"Bexley","lat":51.442,"lng":0.149,"pop":228000},{"name":"Luton","lat":51.88,"lng":-0.417,"pop":225262},{"name":"Barking","lat":51.533,"lng":0.083,"pop":218534},{"name":"Archway","lat":51.567,"lng":-0.134,"pop":215667},{"name":"Portsmouth","lat":50.799,"lng":-1.091,"pop":208100},{"name":"Swindon","lat":51.558,"lng":-1.781,"pop":201669},{"name":"Dudley","lat":52.5,"lng":-2.083,"pop":199059},{"name":"Aberdeen","lat":57.144,"lng":-2.098,"pop":198590},{"name":"Sutton","lat":51.35,"lng":-0.2,"pop":187600},{"name":"St Helens","lat":53.45,"lng":-2.733,"pop":183200},{"name":"Ipswich","lat":52.059,"lng":1.155,"pop":178835},{"name":"Wigan","lat":53.543,"lng":-2.637,"pop":175405},{"name":"Croydon","lat":51.383,"lng":-0.1,"pop":173314},{"name":"Warrington","lat":53.393,"lng":-2.58,"pop":172330},{"name":"Walsall","lat":52.585,"lng":-1.984,"pop":172141},{"name":"Mansfield","lat":53.133,"lng":-1.2,"pop":171958},{"name":"Sunderland","lat":54.905,"lng":-1.382,"pop":170134},{"name":"Ilford","lat":51.558,"lng":0.073,"pop":168168},{"name":"Slough","lat":51.509,"lng":-0.595,"pop":164793},{"name":"Bournemouth","lat":50.72,"lng":-1.879,"pop":163600},{"name":"Peterborough","lat":52.574,"lng":-0.248,"pop":163379},{"name":"Oxford","lat":51.752,"lng":-1.256,"pop":162100},{"name":"Newport","lat":51.588,"lng":-2.998,"pop":161506},{"name":"Enfield Town","lat":51.651,"lng":-0.085,"pop":156858},{"name":"York","lat":53.958,"lng":-1.083,"pop":156135},{"name":"Telford","lat":52.677,"lng":-2.449,"pop":155570},{"name":"Poole","lat":50.714,"lng":-1.985,"pop":151500},{"name":"Burnley","lat":53.8,"lng":-2.233,"pop":149422},{"name":"Harrow","lat":51.578,"lng":-0.332,"pop":149246},{"name":"Huddersfield","lat":53.649,"lng":-1.784,"pop":149017},{"name":"Dundee","lat":56.469,"lng":-2.975,"pop":148210},{"name":"Blackburn","lat":53.75,"lng":-2.483,"pop":146521},{"name":"Cambridge","lat":52.2,"lng":0.117,"pop":145674},{"name":"Blackpool","lat":53.817,"lng":-3.05,"pop":145007},{"name":"Basildon","lat":51.568,"lng":0.458,"pop":144859},{"name":"Norwich","lat":52.628,"lng":1.298,"pop":143135},{"name":"Middlesbrough","lat":54.576,"lng":-1.235,"pop":142707},{"name":"Bolton","lat":53.583,"lng":-2.433,"pop":141331},{"name":"Stockport","lat":53.41,"lng":-2.158,"pop":139052},{"name":"High Wycombe","lat":51.629,"lng":-0.749,"pop":133204},{"name":"Gloucester","lat":51.866,"lng":-2.243,"pop":132416},{"name":"Exeter","lat":50.724,"lng":-3.528,"pop":130709},{"name":"Colchester","lat":51.889,"lng":0.904,"pop":130245},{"name":"Tottenham","lat":51.604,"lng":-0.068,"pop":130000},{"name":"Salford","lat":53.488,"lng":-2.29,"pop":129794},{"name":"Newcastle under Lyme","lat":53,"lng":-2.233,"pop":127727},{"name":"Solihull","lat":52.414,"lng":-1.781,"pop":126577},{"name":"Watford","lat":51.655,"lng":-0.396,"pop":125707},{"name":"Saint Peters","lat":51.367,"lng":1.417,"pop":125370},{"name":"Crawley","lat":51.113,"lng":-0.183,"pop":124008},{"name":"Burton upon Trent","lat":52.807,"lng":-1.643,"pop":122199},{"name":"Cheltenham","lat":51.9,"lng":-2.08,"pop":118836},{"name":"Rotherham","lat":53.43,"lng":-1.357,"pop":117618},{"name":"Worthing","lat":50.818,"lng":-0.375,"pop":113866},{"name":"Doncaster","lat":53.523,"lng":-1.131,"pop":113566},{"name":"Chesterfield","lat":53.25,"lng":-1.417,"pop":113057},{"name":"Chelmsford","lat":51.736,"lng":0.47,"pop":111511},{"name":"Mendip","lat":51.237,"lng":-2.627,"pop":110000},{"name":"Sutton Coldfield","lat":52.567,"lng":-1.817,"pop":109899},{"name":"Wakefield","lat":53.683,"lng":-1.498,"pop":109766},{"name":"Walthamstow","lat":51.591,"lng":-0.021,"pop":109424},{"name":"Dagenham","lat":51.55,"lng":0.167,"pop":108368},{"name":"Basingstoke","lat":51.262,"lng":-1.087,"pop":107642},{"name":"Maidstone","lat":51.267,"lng":0.517,"pop":107627},{"name":"Bedford","lat":52.135,"lng":-0.466,"pop":106940},{"name":"Woking","lat":51.319,"lng":-0.559,"pop":103900},{"name":"Lincoln","lat":53.227,"lng":-0.538,"pop":103813},{"name":"West Bromwich","lat":52.519,"lng":-1.994,"pop":103112},{"name":"Eastbourne","lat":50.769,"lng":0.285,"pop":101689},{"name":"Worcester","lat":52.189,"lng":-2.22,"pop":101659},{"name":"Bath","lat":51.375,"lng":-2.362,"pop":101557},{"name":"Gillingham","lat":51.389,"lng":0.549,"pop":101187},{"name":"Becontree","lat":51.553,"lng":0.129,"pop":100000},{"name":"Rochdale","lat":53.618,"lng":-2.155,"pop":97550},{"name":"Hemel Hempstead","lat":51.754,"lng":-0.45,"pop":95961},{"name":"Romford","lat":51.575,"lng":0.186,"pop":95000},{"name":"Hayes","lat":51.516,"lng":-0.423,"pop":93928},{"name":"Harlow","lat":51.777,"lng":0.112,"pop":93300},{"name":"Hastings","lat":50.856,"lng":0.58,"pop":92855},{"name":"High Peak","lat":53.368,"lng":-1.845,"pop":92666},{"name":"Darlington","lat":54.524,"lng":-1.55,"pop":92363},{"name":"Stevenage","lat":51.902,"lng":-0.203,"pop":91774},{"name":"Southport","lat":53.646,"lng":-3.01,"pop":91703},{"name":"Chester","lat":53.191,"lng":-2.892,"pop":90524},{"name":"Wembley","lat":51.552,"lng":-0.297,"pop":90045},{"name":"Grays","lat":51.476,"lng":0.325,"pop":89755},{"name":"Harrogate","lat":53.991,"lng":-1.537,"pop":89060},{"name":"Hartlepool","lat":54.686,"lng":-1.21,"pop":88855},{"name":"Nuneaton","lat":52.523,"lng":-1.465,"pop":88813},{"name":"Redditch","lat":52.306,"lng":-1.946,"pop":87847},