[{"name":"Afghanistan","lat":33.84,"lng":66.004},{"name":"Angola","lat":-12.226,"lng":17.465},{"name":"Albania","lat":41.134,"lng":20.034},{"name":"United Arab Emirates","lat":23.871,"lng":54.201},{"name":"Argentina","lat":-34.737,"lng":-64.754},{"name":"Armenia","lat":40.214,"lng":45.01},{"name":"French Southern and Antarctic Lands","lat":-49.307,"lng":69.531},{"name":"Australia","lat":-25.763,"lng":134.314},{"name":"Austria","lat":47.621,"lng":14.061},{"name":"Azerbaijan","lat":40.219,"lng":47.556},{"name":"Burundi","lat":-3.377,"lng":29.914},{"name":"Belgium","lat":50.653,"lng":4.587},{"name":"Benin","lat":9.641,"lng":2.336},{"name":"Burkina Faso","lat":12.313,"lng":-1.783},{"name":"Bangladesh","lat":23.834,"lng":90.277},{"name":"Bulgaria","lat":42.756,"lng":25.188},{"name":"The Bahamas","lat":25.506,"lng":-77.929},{"name":"Bosnia and Herzegovina","lat":44.179,"lng":17.823},{"name":"Belarus","lat":53.495,"lng":27.965},{"name":"Belize","lat":17.195,"lng":-88.704},{"name":"Bolivia","lat":-16.704,"lng":-64.655},{"name":"Brazil","lat":-10.655,"lng":-53.173},{"name":"Brunei","lat":4.69,"lng":114.915},{"name":"Bhutan","lat":27.43,"lng":90.473},{"name":"Botswana","lat":-22.082,"lng":23.783},{"name":"Central African Republic","lat":6.547,"lng":20.368},{"name":"Canada","lat":60.477,"lng":-96.396},{"name":"Switzerland","lat":46.793,"lng":8.116},{"name":"Chile","lat":-37.309,"lng":-71.178},{"name":"China","lat":36.683,"lng":103.453},{"name":"Ivory Coast","lat":7.551,"lng":-5.612},{"name":"Cameroon","lat":5.654,"lng":12.606},{"name":"Democratic Republic of the Congo","lat":-2.839,"lng":23.577},{"name":"Republic of the Congo","lat":-0.837,"lng":15.136},{"name":"Colombia","lat":3.917,"lng":-73.073},{"name":"Costa Rica","lat":9.965,"lng":-84.173},{"name":"Cuba","lat":21.647,"lng":-78.931},{"name":"Northern Cyprus","lat":35.275,"lng":33.558},{"name":"Cyprus","lat":34.908,"lng":33.039},{"name":"Czechia","lat":49.78,"lng":15.343},{"name":"Germany","lat":51.077,"lng":10.27},{"name":"Djibouti","lat":11.773,"lng":42.497},{"name":"Denmark","lat":56.059,"lng":9.886},{"name":"Dominican Republic","lat":18.885,"lng":-70.462},{"name":"Algeria","lat":28.086,"lng":2.612},{"name":"Ecuador","lat":-1.454,"lng":-78.384},{"name":"Egypt","lat":26.475,"lng":29.861},{"name":"Eritrea","lat":15.427,"lng":38.689},{"name":"Spain","lat":40.32,"lng":-3.624},{"name":"Estonia","lat":58.642,"lng":25.83},{"name":"Ethiopia","lat":8.646,"lng":39.56},{"name":"Finland","lat":64.261,"lng":26.142},{"name":"Fiji","lat":-17.316,"lng":178.568},{"name":"Falkland Islands","lat":-51.717,"lng":-59.417},{"name":"France","lat":43.136,"lng":-6.812},{"name":"Gabon","lat":-0.647,"lng":11.688},{"name":"United Kingdom","lat":53.808,"lng":-2.759},{"name":"Georgia","lat":42.168,"lng":43.499},{"name":"Ghana","lat":7.923,"lng":-1.237},{"name":"Guinea","lat":10.45,"lng":-11.055},{"name":"Gambia","lat":13.477,"lng":-15.432},{"name":"Guinea-Bissau","lat":12.024,"lng":-15.11},{"name":"Equatorial Guinea","lat":1.646,"lng":10.366},{"name":"Greece","lat":39.037,"lng":22.72},{"name":"Greenland","lat":73.151,"lng":-41.965},{"name":"Guatemala","lat":15.696,"lng":-90.372},{"name":"Guyana","lat":4.786,"lng":-58.969},{"name":"Honduras","lat":14.825,"lng":-86.593},{"name":"Croatia","lat":45.01,"lng":16.567},{"name":"Haiti","lat":18.9,"lng":-72.66},{"name":"Hungary","lat":47.203,"lng":19.343},{"name":"Indonesia","lat":-2.272,"lng":117.363},{"name":"India","lat":22.819,"lng":79.54},{"name":"Ireland","lat":53.172,"lng":-8.017},{"name":"Iran","lat":32.474,"lng":54.453},{"name":"Iraq","lat":33.01,"lng":43.787},{"name":"Iceland","lat":65.08,"lng":-18.766},{"name":"Italy","lat":42.671,"lng":12.269},{"name":"Jamaica","lat":18.138,"lng":-77.324},{"name":"Jordan","lat":31.24,"lng":36.766},{"name":"Japan","lat":37.536,"lng":137.711},{"name":"Kazakhstan","lat":48.406,"lng":67.235},{"name":"Kenya","lat":0.595,"lng":37.792},{"name":"Kyrgyzstan","lat":41.519,"lng":74.587},{"name":"Cambodia","lat":12.685,"lng":104.874},{"name":"South Korea","lat":36.418,"lng":127.82},{"name":"Kosovo","lat":42.579,"lng":20.895},{"name":"Kuwait","lat":29.307,"lng":47.601},{"name":"Laos","lat":18.431,"lng":103.788},{"name":"Lebanon","lat":33.91,"lng":35.868},{"name":"Liberia","lat":6.431,"lng":-9.409},{"name":"Libya","lat":26.988,"lng":18.03},{"name":"Sri Lanka","lat":7.699,"lng":80.668},{"name":"Lesotho","lat":-29.625,"lng":28.172},{"name":"Lithuania","lat":55.283,"lng":23.889},{"name":"Luxembourg","lat":49.765,"lng":5.965},{"name":"Latvia","lat":56.817,"lng":24.841},{"name":"Morocco","lat":29.815,"lng":-8.694},{"name":"Moldova","lat":47.197,"lng":28.42},{"name":"Madagascar","lat":-19.302,"lng":46.729},{"name":"Mexico","lat":23.913,"lng":-102.223},{"name":"Macedonia","lat":41.606,"lng":21.696},{"name":"Mali","lat":17.241,"lng":-3.593},{"name":"Myanmar","lat":20.945,"lng":96.513},{"name":"Montenegro","lat":42.788,"lng":19.286},{"name":"Mongolia","lat":46.954,"lng":103.016},{"name":"Mozambique","lat":-17.154,"lng":35.542},{"name":"Mauritania","lat":20.18,"lng":-10.349},{"name":"Malawi","lat":-13.16,"lng":34.186},{"name":"Malaysia","lat":3.746,"lng":109.7},{"name":"Namibia","lat":-22.04,"lng":17.142},{"name":"New Caledonia","lat":-21.261,"lng":165.528},{"name":"Niger","lat":17.341,"lng":9.274},{"name":"Nigeria","lat":9.545,"lng":7.986},{"name":"Nicaragua","lat":12.846,"lng":-85.022},{"name":"Netherlands","lat":52.293,"lng":5.501},{"name":"Norway","lat":66.648,"lng":12.829},{"name":"Nepal","lat":28.249,"lng":84.044},{"name":"New Zealand","lat":-41.552,"lng":172.951},{"name":"Oman","lat":20.591,"lng":56.068},{"name":"Pakistan","lat":29.908,"lng":69.235},{"name":"Panama","lat":8.533,"lng":-80.109},{"name":"Peru","lat":-9.147,"lng":-74.43},{"name":"Philippines","lat":11.719,"lng":122.938},{"name":"Papua New Guinea","lat":-6.457,"lng":145.312},{"name":"Poland","lat":52.134,"lng":19.344},{"name":"Puerto Rico","lat":18.238,"lng":-66.479},{"name":"North Korea","lat":40.13,"lng":127.131},{"name":"Portugal","lat":39.607,"lng":-8.061},{"name":"Paraguay","lat":-23.229,"lng":-58.432},{"name":"Palestine","lat":31.941,"lng":35.273},{"name":"Qatar","lat":25.321,"lng":51.183},{"name":"Romania","lat":45.853,"lng":24.954},{"name":"Russia","lat":66.068,"lng":95.785},{"name":"Rwanda","lat":-2.013,"lng":29.919},{"name":"Western Sahara","lat":24.278,"lng":-12.186},{"name":"Saudi Arabia","lat":24.09,"lng":44.642},{"name":"Sudan","lat":15.971,"lng":29.83},{"name":"South Sudan","lat":7.293,"lng":30.202},{"name":"Senegal","lat":14.353,"lng":-14.506},{"name":"Solomon Islands","lat":-8.852,"lng":159.959},{"name":"Sierra Leone","lat":8.529,"lng":-11.795},{"name":"El Salvador","lat":13.727,"lng":-88.872},{"name":"Somaliland","lat":9.761,"lng":46.232},{"name":"Somalia","lat":4.742,"lng":45.7},{"name":"Republic of Serbia","lat":44.223,"lng":20.837},{"name":"Suriname","lat":4.12,"lng":-55.912},{"name":"Slovakia","lat":48.733,"lng":19.497},{"name":"Slovenia","lat":46.126,"lng":14.934},{"name":"Sweden","lat":62.418,"lng":16.109},{"name":"Swaziland","lat":-26.489,"lng":31.395},{"name":"Syria","lat":35.008,"lng":38.523},{"name":"Chad","lat":15.276,"lng":18.573},{"name":"Togo","lat":8.435,"lng":0.998},{"name":"Thailand","lat":14.981,"lng":101.003},{"name":"Tajikistan","lat":38.589,"lng":71.048},{"name":"Turkmenistan","lat":39.102,"lng":59.348},{"name":"East Timor","lat":-8.768,"lng":125.967},{"name":"Trinidad and Tobago","lat":10.428,"lng":-61.331},{"name":"Tunisia","lat":34.144,"lng":9.539},{"name":"Turkey","lat":39.145,"lng":35.117},{"name":"Taiwan","lat":23.738,"lng":120.972},{"name":"United Republic of Tanzania","lat":-6.251,"lng":34.742},{"name":"Uganda","lat":1.295,"lng":32.357},{"name":"Ukraine","lat":49.187,"lng":31.292},{"name":"Uruguay","lat":-32.774,"lng":-56.01},{"name":"United States of America","lat":44.756,"lng":-103.573},{"name":"Uzbekistan","lat":41.771,"lng":63.366},{"name":"Venezuela","lat":7.161,"lng":-66.153},{"name":"Vietnam","lat":16.555,"lng":106.333},{"name":"Vanuatu","lat":-15.541,"lng":167.072},{"name":"Yemen","lat":15.922,"lng":47.515},{"name":"South Africa","lat":-28.923,"lng":25.158},{"name":"Zambia","lat":-13.393,"lng":27.762},{"name":"Zimbabwe","lat":-18.9,"lng":29.789}]